INDEX_NO,REGION_NO,PORT_NAME,COUNTRY,LATITUDE,LONGITUDE,LAT_DEG,LAT_MIN,LAT_HEMI,LONG_DEG,LONG_MIN,LONG_HEMI,SHIP_CLASS,IMO,E_CO2_kg,E_SOx_kg,E_NOx_kg,E_PM_kg,E_CH4_kg,E_CO_kg,E_N2O_kg,E_BC_kg,E_NMVOC_kg,E_PM10_kg,E_PM2.5_kg,DURATION,PDemand_kW,FuelConsumption_tonnes,
39470,39330,GENOVA,IT,44.4,8.933333333,44,24,N,8,56,E,195814255.8,1995644.232,2811628.82,15000,2557.881557,136478.2106,10881.55706,14139.57057,110561.4949,289000.511,265880.4701,108015,278392941.3,62758.59439,0,0,0
31060,30980,AMSTERDAM,NL,52.36666667,4.9,52,22,N,4,54,E,14493,8513663.294,1860767.141,10000,12565.23961,111.2122416,5933.835244,473.1111764,614.7639378,4807.021517,12565.23961,11560.02044,4696.304348,12104040.93,2728.634539,0,0
31250,31240,ANTWERP,BE,51.21666667,4.4,51,13,N,4,24,E,14493,8513663.294,2186767.141,7000,12565.23961,111.2122416,5933.835244,473.1111764,614.7639378,4807.021517,12565.23961,11560.02044,4696.304348,12104040.93,2728.634539,0,0
61090,61070,SHAKOTAN,RU,43.86666667,146.8333333,43,52,N,146,50,E,0,0,0,0,0,0,0,0,0,0,0,0,0,0,0,0,0
61110,61100,MOMBETSU KO,JP,44.35,143.35,44,21,N,143,21,E,0,0,0,0,0,0,0,0,0,0,0,0,0,0,0,0,0
5750,5705,CHARLOTTETOWN,CA,46.23333333,-63.13333333,46,14,N,63,8,W,0,0,0,0,0,0,0,0,0,0,0,0,0,0,0,0,0
61120,61100,ABASHIRI KO,JP,44.01666667,144.2833333,44,1,N,144,17,E,0,0,0,0,0,0,0,0,0,0,0,0,0,0,0,0,0
61130,61100,NEMURO KO,JP,43.33333333,145.5833333,43,20,N,145,35,E,0,0,0,0,0,0,0,0,0,0,0,0,0,0,0,0,0
61140,61100,HANASAKI KO,JP,43.28333333,145.5833333,43,17,N,145,35,E,0,0,0,0,0,0,0,0,0,0,0,0,0,0,0,0,0
61160,61100,KUSHIRO KO,JP,42.98333333,144.3666667,42,59,N,144,22,E,0,0,0,0,0,0,0,0,0,0,0,0,0,0,0,0,0
61165,61100,TOMAKOMAI KO,JP,42.63333333,141.6333333,42,38,N,141,38,E,0,0,0,0,0,0,0,0,0,0,0,0,0,0,0,0,0
61170,61100,MURORAN KO,JP,42.35,140.9666667,42,21,N,140,58,E,0,0,0,0,0,0,0,0,0,0,0,0,0,0,0,0,0
61180,61100,MORI,JP,42.11666667,140.5833333,42,7,N,140,35,E,0,0,0,0,0,0,0,0,0,0,0,0,0,0,0,0,0
49500,49310,GOPALPUR,IN,19.25,84.91666667,19,15,N,84,55,E,0,0,0,0,0,0,0,0,0,0,0,0,0,0,0,0,0
47990,47950,EL GHARDAQA,EG,27.21666667,33.85,27,13,N,33,51,E,0,0,0,0,0,0,0,0,0,0,0,0,0,0,0,0,0
48015,47950,RAS SHUKHIER,EG,28.13333333,33.28333333,28,8,N,33,17,E,0,0,0,0,0,0,0,0,0,0,0,0,0,0,0,0,0
48020,47950,RAS GHARIB,EG,28.35,33.1,28,21,N,33,6,E,0,0,0,0,0,0,0,0,0,0,0,0,0,0,0,0,0
48040,47950,AS SUWAYS,EG,29.96666667,32.55,29,58,N,32,33,E,0,0,0,0,0,0,0,0,0,0,0,0,0,0,0,0,0
48045,47950,EL-ADABIYA,EG,29.86666667,32.46666667,29,52,N,32,28,E,0,0,0,0,0,0,0,0,0,0,0,0,0,0,0,0,0
48050,47950,EL ISMAILIYA,EG,30.58333333,32.28333333,30,35,N,32,17,E,0,0,0,0,0,0,0,0,0,0,0,0,0,0,0,0,0
48060,47950,RAS ABU ZANIMAH,EG,29.03333333,33.11666667,29,2,N,33,7,E,0,0,0,0,0,0,0,0,0,0,0,0,0,0,0,0,0
48065,47950,WADI FEIRAN,EG,28.75,33.2,28,45,N,33,12,E,0,0,0,0,0,0,0,0,0,0,0,0,0,0,0,0,0
48076,48075,ELAT,IL,29.55,34.95,29,33,N,34,57,E,0,0,0,0,0,0,0,0,0,0,0,0,0,0,0,0,0
48090,48080,AL AQABAH,JO,29.51666667,35,29,31,N,35,0,E,0,0,0,0,0,0,0,0,0,0,0,0,0,0,0,0,0
48120,48100,YANBU,SA,24.08333333,38.05,24,5,N,38,3,E,0,0,0,0,0,0,0,0,0,0,0,0,0,0,0,0,0
48140,48100,JIDDAH,SA,21.48333333,39.18333333,21,29,N,39,11,E,0,0,0,0,0,0,0,0,0,0,0,0,0,0,0,0,0
48142,48100,JIZAN,SA,16.9,42.48333333,16,54,N,42,29,E,0,0,0,0,0,0,0,0,0,0,0,0,0,0,0,0,0
46780,46725,SIMONSTOWN,ZA,-34.18333333,18.43333333,34,11,S,18,26,E,0,0,0,0,0,0,0,0,0,0,0,0,0,0,0,0,0
46800,46725,MOSSEL BAY,ZA,-34.18333333,22.15,34,11,S,22,9,E,0,0,0,0,0,0,0,0,0,0,0,0,0,0,0,0,0
46820,46725,PORT ELIZABETH,ZA,-33.96666667,25.61666667,33,58,S,25,37,E,0,0,0,0,0,0,0,0,0,0,0,0,0,0,0,0,0
33770,33630,BELFAST,GB,54.61666667,-5.9,54,37,N,5,54,W,0,0,614527,883,1938,1912,756,1065,1163,1006,1702,1588,1297,0,0,0,0
33790,33630,LARNE,GB,54.85,-5.8,54,51,N,5,48,W,0,0,178690,1306,1446,1984,700,647,1141,1215,1638,797,957,0,0,0,0
33820,33630,COLERAINE,GB,55.13333333,-6.666666667,55,8,N,6,40,W,0,0,319005,777,1956,1872,1718,1153,1410,1730,1383,1795,708,0,0,0,0
33830,33630,LONDONDERRY,GB,55,-7.316666667,55,0,N,7,19,W,0,0,749192,1784,1361,994,854,1021,1858,1694,1675,1098,1366,0,0,0,0
33060,32790,ORNSAY,GB,57.15,-5.8,57,9,N,5,48,W,0,0,682510,735,1723,1638,1561,1121,946,511,1710,1620,886,0,0,0,0
32290,31870,BUCKIE HARBOR,GB,57.68333333,-2.966666667,57,41,N,2,58,W,0,0,695898,1773,951,1851,1909,1046,1297,1887,1706,641,1239,0,0,0,0
32300,31870,LOSSIEMOUTH,GB,57.71666667,-3.283333333,57,43,N,3,17,W,0,0,782419,1036,579,1896,602,959,678,1127,1033,1026,1538,0,0,0,0
32320,31870,BURGHEAD,GB,57.7,-3.5,57,42,N,3,30,W,0,0,488687,1425,1911,1774,1680,1439,1993,1054,1346,774,663,0,0,0,0
32330,31870,INVERNESS,GB,57.48333333,-4.233333333,57,29,N,4,14,W,0,0,705602,1726,1573,1161,846,550,1127,1536,898,1089,871,0,0,0,0
32340,31870,CROMARTY,GB,57.68333333,-4.033333333,57,41,N,4,2,W,0,0,871840,1171,1759,914,1195,1098,1184,1105,1624,1863,1287,0,0,0,0
32350,31870,INVERGORDON,GB,57.68333333,-4.166666667,57,41,N,4,10,W,0,0,480309,1687,1663,952,1282,1143,542,714,1453,1614,1379,0,0,0,0
32360,31870,PORTMAHOMACK HARBOR,GB,57.83333333,-3.833333333,57,50,N,3,50,W,0,0,394478,691,1916,1279,1830,842,1086,678,1340,1275,736,0,0,0,0
32370,31870,HELMSDALE HARBOR,GB,58.11666667,-3.65,58,7,N,3,39,W,0,0,441960,850,952,1234,633,1636,734,1559,1656,1520,1988,0,0,0,0
32380,31870,WICK,GB,58.43333333,-3.083333333,58,26,N,3,5,W,0,0,748173,1225,767,1071,605,956,1251,776,672,1576,520,0,0,0,0
32410,32390,PIEROWALL,GB,59.3,-2.983333333,59,18,N,2,59,W,0,0,719893,1222,1617,1981,1955,715,1989,864,1845,743,573,0,0,0,0
32420,32390,KETTLETOFT,GB,59.23333333,-2.6,59,14,N,2,36,W,0,0,90178,1267,1605,1276,1193,1178,1648,505,730,569,1186,0,0,0,0
32430,32390,WHITEHALL,GB,59.13333333,-2.6,59,8,N,2,36,W,0,0,885291,1659,1344,1546,1237,1484,1825,914,713,1292,947,0,0,0,0
32440,32390,KIRKWALL,GB,58.98333333,-2.966666667,58,59,N,2,58,W,0,0,713612,738,992,1614,1758,1913,726,1409,1714,1053,645,0,0,0,0
32450,32390,STROMNESS,GB,58.96666667,-3.3,58,58,N,3,18,W,0,0,479309,1100,1453,1366,686,1771,1994,1985,1902,719,845,0,0,0,0
32460,32390,SOUTH NESS,GB,58.8,-3.2,58,48,N,3,12,W,0,0,225531,1393,1854,1154,672,1984,1180,568,592,1650,1106,0,0,0,0
32470,32390,ST MARGARETS HOPE,GB,58.83333333,-2.95,58,50,N,2,57,W,0,0,548733,1213,954,1043,916,1129,1621,839,1257,1388,605,0,0,0,0
32490,32390,LYNESS,GB,58.83333333,-3.2,58,50,N,3,12,W,0,0,71378,907,776,1738,577,693,1484,675,587,1630,1270,0,0,0,0
32500,32390,SCAPA BAY,GB,58.95,-2.983333333,58,57,N,2,59,W,0,0,212630,1268,760,1204,582,1599,1951,1933,511,1128,1663,0,0,0,0
4800,4570,CHICAGO,US,41.88333333,-87.6,41,53,N,87,36,W,0,0,0,0,0,0,0,0,0,0,0,0,0,0,0,0,0
4810,4570,WILMETTE,US,42.08333333,-87.68333333,42,5,N,87,41,W,0,0,0,0,0,0,0,0,0,0,0,0,0,0,0,0,0
4820,4570,GREAT LAKES,US,42.3,-87.83333333,42,18,N,87,50,W,0,0,0,0,0,0,0,0,0,0,0,0,0,0,0,0,0
4830,4570,WAUKEGAN,US,42.36666667,-87.81666667,42,22,N,87,49,W,0,0,0,0,0,0,0,0,0,0,0,0,0,0,0,0,0
4840,4570,KENOSHA,US,42.58333333,-87.81666667,42,35,N,87,49,W,0,0,0,0,0,0,0,0,0,0,0,0,0,0,0,0,0
4850,4570,RACINE,US,42.73333333,-87.78333333,42,44,N,87,47,W,0,0,0,0,0,0,0,0,0,0,0,0,0,0,0,0,0
4860,4570,MILWAUKEE,US,43.03333333,-87.88333333,43,2,N,87,53,W,0,0,0,0,0,0,0,0,0,0,0,0,0,0,0,0,0
4870,4570,PORT WASHINGTON,US,43.38333333,-87.86666667,43,23,N,87,52,W,0,0,0,0,0,0,0,0,0,0,0,0,0,0,0,0,0
4880,4570,SHEBOYGAN,US,43.75,-87.7,43,45,N,87,42,W,0,0,0,0,0,0,0,0,0,0,0,0,0,0,0,0,0
4890,4570,MANITOWOC,US,44.1,-87.65,44,6,N,87,39,W,0,0,0,0,0,0,0,0,0,0,0,0,0,0,0,0,0
4380,4300,PORT HOPE,US,43.95,-82.7,43,57,N,82,42,W,0,0,0,0,0,0,0,0,0,0,0,0,0,0,0,0,0
4400,4300,BAY CITY,US,43.6,-83.86666667,43,36,N,83,52,W,0,0,0,0,0,0,0,0,0,0,0,0,0,0,0,0,0
3700,3640,SARNIA,CA,42.98333333,-82.41666667,42,59,N,82,25,W,0,0,0,0,0,0,0,0,0,0,0,0,0,0,0,0,0
3710,3640,POINT EDWARD,CA,43,-82.41666667,43,0,N,82,25,W,0,0,0,0,0,0,0,0,0,0,0,0,0,0,0,0,0
3730,3640,GODERICH,CA,43.75,-81.73333333,43,45,N,81,44,W,0,0,0,0,0,0,0,0,0,0,0,0,0,0,0,0,0
3750,3640,PORT ELGIN,CA,44.43333333,-81.4,44,26,N,81,24,W,0,0,0,0,0,0,0,0,0,0,0,0,0,0,0,0,0
3760,3640,SOUTHAMPTON,CA,44.5,-81.38333333,44,30,N,81,23,W,0,0,0,0,0,0,0,0,0,0,0,0,0,0,0,0,0
3770,3640,TOBERMORY,CA,45.26666667,-81.66666667,45,16,N,81,40,W,0,0,0,0,0,0,0,0,0,0,0,0,0,0,0,0,0
3790,3640,LIONS HEAD,CA,44.98333333,-81.25,44,59,N,81,15,W,0,0,0,0,0,0,0,0,0,0,0,0,0,0,0,0,0
3810,3640,WIARTON,CA,44.75,-81.13333333,44,45,N,81,8,W,0,0,0,0,0,0,0,0,0,0,0,0,0,0,0,0,0
3860,3640,OWEN SOUND,CA,44.58333333,-80.93333333,44,35,N,80,56,W,0,0,0,0,0,0,0,0,0,0,0,0,0,0,0,0,0
3880,3640,MEAFORD,CA,44.61666667,-80.6,44,37,N,80,36,W,0,0,0,0,0,0,0,0,0,0,0,0,0,0,0,0,0
3890,3640,THORNBURY,CA,44.56666667,-80.45,44,34,N,80,27,W,0,0,0,0,0,0,0,0,0,0,0,0,0,0,0,0,0
3900,3640,COLLINGWOOD,CA,44.5,-80.23333333,44,30,N,80,14,W,0,0,0,0,0,0,0,0,0,0,0,0,0,0,0,0,0
3930,3640,PENETANGUISHENE,CA,44.76666667,-79.93333333,44,46,N,79,56,W,0,0,0,0,0,0,0,0,0,0,0,0,0,0,0,0,0
3940,3640,MIDLAND,CA,44.75,-79.91666667,44,45,N,79,55,W,0,0,0,0,0,0,0,0,0,0,0,0,0,0,0,0,0
3950,3640,TIFFIN,CA,44.75,-79.85,44,45,N,79,51,W,0,0,0,0,0,0,0,0,0,0,0,0,0,0,0,0,0
3960,3640,PORT MCNICOLL,CA,44.75,-79.8,44,45,N,79,48,W,0,0,0,0,0,0,0,0,0,0,0,0,0,0,0,0,0
3970,3640,VICTORIA HARBOUR,CA,44.75,-79.81666667,44,45,N,79,49,W,0,0,0,0,0,0,0,0,0,0,0,0,0,0,0,0,0
3980,3640,WAUBAUSHENE,CA,44.76666667,-79.71666667,44,46,N,79,43,W,0,0,0,0,0,0,0,0,0,0,0,0,0,0,0,0,0
4000,3640,PORT SEVERN,CA,44.8,-79.71666667,44,48,N,79,43,W,0,0,0,0,0,0,0,0,0,0,0,0,0,0,0,0,0
4020,3640,DEPOT HARBOUR,CA,45.31666667,-80.1,45,19,N,80,6,W,0,0,0,0,0,0,0,0,0,0,0,0,0,0,0,0,0
4030,3640,PARRY SOUND,CA,45.33333333,-80.03333333,45,20,N,80,2,W,0,0,0,0,0,0,0,0,0,0,0,0,0,0,0,0,0
4050,3640,BYNG INLET,CA,45.76666667,-80.56666667,45,46,N,80,34,W,0,0,0,0,0,0,0,0,0,0,0,0,0,0,0,0,0
4060,3640,KEY HARBOUR,CA,45.88333333,-80.75,45,53,N,80,45,W,0,0,0,0,0,0,0,0,0,0,0,0,0,0,0,0,0
4080,3640,KILLARNEY,CA,45.96666667,-81.51666667,45,58,N,81,31,W,0,0,0,0,0,0,0,0,0,0,0,0,0,0,0,0,0
11905,11860,MAMONAL,CO,10.31666667,-75.51666667,10,19,N,75,31,W,0,0,0,0,0,0,0,0,0,0,0,0,0,0,0,0,0
13040,12700,IMBITUBA,BR,-28.23333333,-48.66666667,28,14,S,48,40,W,0,0,0,0,0,0,0,0,0,0,0,0,0,0,0,0,0
12935,12700,GUAIBA ISLAND TERMINAL,BR,-23.01666667,-44.03333333,23,1,S,44,2,W,0,0,0,0,0,0,0,0,0,0,0,0,0,0,0,0,0
12900,12700,DTSE / GEGUA OIL TERMINAL,BR,-22.81666667,-43.15,22,49,S,43,9,W,0,0,0,0,0,0,0,0,0,0,0,0,0,0,0,0,0
12950,12700,GEBIG,BR,-23.05,-44.21666667,23,3,S,44,13,W,0,0,0,0,0,0,0,0,0,0,0,0,0,0,0,0,0
60810,60530,DE KASTRI,RU,51.46666667,140.7833333,51,28,N,140,47,E,0,0,0,0,0,0,0,0,0,0,0,0,0,0,0,0,0
60820,60530,NIKOLAYEVSK NA AMUR,RU,53.13333333,140.7333333,53,8,N,140,44,E,0,0,0,0,0,0,0,0,0,0,0,0,0,0,0,0,0
60860,60840,OKHA,RU,53.55,143,53,33,N,143,0,E,0,0,0,0,0,0,0,0,0,0,0,0,0,0,0,0,0
60880,60840,PORONAYSK,RU,49.21666667,143.1333333,49,13,N,143,8,E,0,0,0,0,0,0,0,0,0,0,0,0,0,0,0,0,0
60920,60840,KORSAKOV,RU,46.61666667,142.7666667,46,37,N,142,46,E,0,0,0,0,0,0,0,0,0,0,0,0,0,0,0,0,0
60930,60840,NEVELSK,RU,46.66666667,141.8666667,46,40,N,141,52,E,0,0,0,0,0,0,0,0,0,0,0,0,0,0,0,0,0
60940,60840,KHOLMSK,RU,47.05,142.05,47,3,N,142,3,E,0,0,0,0,0,0,0,0,0,0,0,0,0,0,0,0,0
60980,60840,UGLEGORSK,RU,49.08333333,142.0333333,49,5,N,142,2,E,0,0,0,0,0,0,0,0,0,0,0,0,0,0,0,0,0
60990,60840,LESOGORSK,RU,49.45,142.1333333,49,27,N,142,8,E,0,0,0,0,0,0,0,0,0,0,0,0,0,0,0,0,0
60380,60315,MASAN,KR,35.18333333,128.5666667,35,11,N,128,34,E,0,0,0,0,0,0,0,0,0,0,0,0,0,0,0,0,0
60390,60315,PUSAN,KR,35.1,129.0333333,35,6,N,129,2,E,0,0,0,0,0,0,0,0,0,0,0,0,0,0,0,0,0
60400,60315,ULSAN,KR,35.45,129.4,35,27,N,129,24,E,0,0,0,0,0,0,0,0,0,0,0,0,0,0,0,0,0
59910,59850,WENZHOU,CN,28.01666667,120.65,28,1,N,120,39,E,0,0,0,0,0,0,0,0,0,0,0,0,0,0,0,0,0
59950,59850,ZHEN HAI,CN,29.95,121.7,29,57,N,121,42,E,0,0,0,0,0,0,0,0,0,0,0,0,0,0,0,0,0
59960,59850,ZHOUSHAN,CN,30,122.1,30,0,N,122,6,E,0,0,0,0,0,0,0,0,0,0,0,0,0,0,0,0,0
59985,59850,JIANGYIN,CN,31.91666667,120.2333333,31,55,N,120,14,E,0,0,0,0,0,0,0,0,0,0,0,0,0,0,0,0,0
59987,59850,GAOGANG,CN,32.28333333,119.85,32,17,N,119,51,E,0,0,0,0,0,0,0,0,0,0,0,0,0,0,0,0,0
59988,59850,YANGZHOU,CN,32.26666667,119.4333333,32,16,N,119,26,E,0,0,0,0,0,0,0,0,0,0,0,0,0,0,0,0,0
59995,59850,ZHENJIANG,CN,32.21666667,119.4333333,32,13,N,119,26,E,0,0,0,0,0,0,0,0,0,0,0,0,0,0,0,0,0
60000,59850,NANJING,CN,32.08333333,118.75,32,5,N,118,45,E,0,0,0,0,0,0,0,0,0,0,0,0,0,0,0,0,0
60010,59850,WU HU,CN,31.33333333,118.3666667,31,20,N,118,22,E,0,0,0,0,0,0,0,0,0,0,0,0,0,0,0,0,0
60030,59850,ANKINGCHENG,CN,30.51666667,117.0333333,30,31,N,117,2,E,0,0,0,0,0,0,0,0,0,0,0,0,0,0,0,0,0
60060,59850,HANKOW,CN,30.58333333,114.2833333,30,35,N,114,17,E,0,0,0,0,0,0,0,0,0,0,0,0,0,0,0,0,0
60110,59850,WANXIAN,CN,30.81666667,108.4333333,30,49,N,108,26,E,0,0,0,0,0,0,0,0,0,0,0,0,0,0,0,0,0
60120,59850,CHUNG CHING,CN,29.56666667,106.6333333,29,34,N,106,38,E,0,0,0,0,0,0,0,0,0,0,0,0,0,0,0,0,0
60130,59850,LIANYUNGANG,CN,34.73333333,119.45,34,44,N,119,27,E,0,0,0,0,0,0,0,0,0,0,0,0,0,0,0,0,0
60140,59850,QINGDAO GANG,CN,36.03333333,120.2666667,36,2,N,120,16,E,0,0,0,0,0,0,0,0,0,0,0,0,0,0,0,0,0
46280,46250,DOUALA,CM,4.05,9.683333333,4,3,N,9,41,E,0,0,0,0,0,0,0,0,0,0,0,0,0,0,0,0,0
46285,46250,KOLE OIL TERMINAL,CM,4.25,8.55,4,15,N,8,33,E,0,0,0,0,0,0,0,0,0,0,0,0,0,0,0,0,0
46305,46300,BATA,GQ,1.866666667,9.766666667,1,52,N,9,46,E,0,0,0,0,0,0,0,0,0,0,0,0,0,0,0,0,0
46430,46410,LIBREVILLE,GA,0.3833333333,9.45,0,23,N,9,27,E,0,0,0,0,0,0,0,0,0,0,0,0,0,0,0,0,0
46435,46410,PORT OWENDO,GA,0.2833333333,9.5,0,17,N,9,30,E,0,0,0,0,0,0,0,0,0,0,0,0,0,0,0,0,0
46440,46410,PORT GENTIL,GA,-0.7,8.8,0,42,S,8,48,E,0,0,0,0,0,0,0,0,0,0,0,0,0,0,0,0,0
46445,46410,CAP LOPEZ,GA,-0.6333333333,8.716666667,0,38,S,8,43,E,0,0,0,0,0,0,0,0,0,0,0,0,0,0,0,0,0
53050,52900,SAILOLOF,ID,-1.25,130.75,1,15,S,130,45,E,0,0,0,0,0,0,0,0,0,0,0,0,0,0,0,0,0
52260,51970,BAUBAU,ID,-5.466666667,122.6166667,5,28,S,122,37,E,0,0,0,0,0,0,0,0,0,0,0,0,0,0,0,0,0
52270,51970,RAHA ROADSTEAD,ID,-4.85,122.7333333,4,51,S,122,44,E,0,0,0,0,0,0,0,0,0,0,0,0,0,0,0,0,0
52295,51970,POMALAA,ID,-4.166666667,121.6,4,10,S,121,36,E,0,0,0,0,0,0,0,0,0,0,0,0,0,0,0,0,0
52320,51970,UJUNG PANDANG,ID,-5.133333333,119.4,5,8,S,119,24,E,0,0,0,0,0,0,0,0,0,0,0,0,0,0,0,0,0
52350,51970,DONGGALA,ID,-0.65,119.7333333,0,39,S,119,44,E,0,0,0,0,0,0,0,0,0,0,0,0,0,0,0,0,0
52440,52400,TAHUNA,ID,3.616666667,125.4833333,3,37,N,125,29,E,0,0,0,0,0,0,0,0,0,0,0,0,0,0,0,0,0
52510,52500,TERNATE,ID,0.7833333333,127.3833333,0,47,N,127,23,E,0,0,0,0,0,0,0,0,0,0,0,0,0,0,0,0,0
52523,52520,LABUHA,ID,-0.6333333333,127.4666667,0,38,S,127,28,E,0,0,0,0,0,0,0,0,0,0,0,0,0,0,0,0,0
52680,52650,BULA,ID,-3.1,130.5,3,6,S,130,30,E,0,0,0,0,0,0,0,0,0,0,0,0,0,0,0,0,0
52695,52650,SALAWATI,ID,-1.35,130.9833333,1,21,S,130,59,E,0,0,0,0,0,0,0,0,0,0,0,0,0,0,0,0,0
52720,52650,AMBON,ID,-3.683333333,128.1666667,3,41,S,128,10,E,0,0,0,0,0,0,0,0,0,0,0,0,0,0,0,0,0
52760,52735,NAMLEA,ID,-3.283333333,127.0833333,3,17,S,127,5,E,0,0,0,0,0,0,0,0,0,0,0,0,0,0,0,0,0
52870,52850,SAUMLAKI,ID,-7.983333333,131.3,7,59,S,131,18,E,0,0,0,0,0,0,0,0,0,0,0,0,0,0,0,0,0
52940,52900,SERUI,ID,-1.9,136.25,1,54,S,136,15,E,0,0,0,0,0,0,0,0,0,0,0,0,0,0,0,0,0
53010,52900,MANOKWARI ROAD,ID,-0.8666666667,134.0833333,0,52,S,134,5,E,0,0,0,0,0,0,0,0,0,0,0,0,0,0,0,0,0
52235,51970,MANGKASA OIL TERMINAL,ID,-2.733333333,121.0666667,2,44,S,121,4,E,0,0,0,0,0,0,0,0,0,0,0,0,0,0,0,0,0
52240,51970,KENDARI,ID,-3.966666667,122.5833333,3,58,S,122,35,E,0,0,0,0,0,0,0,0,0,0,0,0,0,0,0,0,0
53045,52900,KASIM TERMINAL,ID,-1.3,131.0166667,1,18,S,131,1,E,0,0,0,0,0,0,0,0,0,0,0,0,0,0,0,0,0
51585,51550,BINTULU PORT,MY,3.266666667,113.0666667,3,16,N,113,4,E,0,0,0,0,0,0,0,0,0,0,0,0,0,0,0,0,0
51590,51550,MIRI,MY,4.383333333,113.9666667,4,23,N,113,58,E,0,0,0,0,0,0,0,0,0,0,0,0,0,0,0,0,0
51600,51550,LUTONG,MY,4.466666667,114,4,28,N,114,0,E,0,0,0,0,0,0,0,0,0,0,0,0,0,0,0,0,0
51620,51610,MUARA HARBOR,BN,5.033333333,115.0666667,5,2,N,115,4,E,0,0,0,0,0,0,0,0,0,0,0,0,0,0,0,0,0
51630,51610,BANDAR SERI BEGAWAN,BN,4.883333333,114.8833333,4,53,N,114,53,E,0,0,0,0,0,0,0,0,0,0,0,0,0,0,0,0,0
51645,51610,SERIA OIL LOADING TERMINAL,BN,4.616666667,114.3166667,4,37,N,114,19,E,0,0,0,0,0,0,0,0,0,0,0,0,0,0,0,0,0
39740,39730,PORTOVECCHIO DI PIOMBINO,IT,42.93333333,10.55,42,56,N,10,33,E,0,0,170345,1055,1393,809,1234,742,1658,545,1781,939,1503,0,0,0,0
39790,39730,PORTO SANTO STEFANO,IT,42.43333333,11.11666667,42,26,N,11,7,E,0,0,341702,1999,1342,1637,1636,1425,769,1827,1450,729,500,0,0,0,0
39810,39730,CIVITAVECCHIA,IT,42.1,11.78333333,42,6,N,11,47,E,0,0,244608,1535,1796,580,520,1982,1965,1487,1326,553,574,0,0,0,0
39820,39730,FIUMICINO,IT,41.76666667,12.23333333,41,46,N,12,14,E,0,0,855846,1877,1704,984,676,1548,1892,1081,1428,516,1976,0,0,0,0
39830,39730,ANZIO,IT,41.45,12.63333333,41,27,N,12,38,E,0,0,464837,1703,1524,877,666,795,1045,1297,721,1628,943,0,0,0,0
39860,39730,GAETA,IT,41.2,13.58333333,41,12,N,13,35,E,0,0,579577,1481,632,1268,1760,669,724,1426,505,688,1531,0,0,0,0
39940,39730,POZZUOLI,IT,40.81666667,14.11666667,40,49,N,14,7,E,0,0,471233,1300,916,1724,1709,947,1315,1819,1908,1075,694,0,0,0,0
39950,39730,BAGNOLI,IT,40.81666667,14.16666667,40,49,N,14,10,E,0,0,538060,727,1348,1058,1499,849,1864,1032,853,1846,604,0,0,0,0
39960,39730,NAPOLI,IT,40.85,14.26666667,40,51,N,14,16,E,0,0,350289,1633,933,1194,876,1849,1539,915,1411,1818,1704,0,0,0,0
39250,39130,CARLOFORTE,IT,39.15,8.316666667,39,9,N,8,19,E,0,0,843717,1450,1193,742,1553,902,1573,703,571,517,980,0,0,0,0
39260,39130,PORTO VESME,IT,39.2,8.4,39,12,N,8,24,E,0,0,811593,1766,749,973,1842,874,986,1271,1569,1772,1937,0,0,0,0
11946,11860,PUERTO BOLIVAR,CO,12.25,-71.96666667,12,15,N,71,58,W,0,0,0,0,0,0,0,0,0,0,0,0,0,0,0,0,0
32590,32510,SCALLOWAY,GB,60.13333333,-1.283333333,60,8,N,1,17,W,0,0,258689,1815,646,1904,811,1004,869,676,1516,1528,1245,0,0,0,0
32600,32510,LERWICK,GB,60.15,-1.15,60,9,N,1,9,W,0,0,410826,1244,1356,651,697,1006,1797,1876,767,1557,1079,0,0,0,0
32630,32510,SULLOM VOE,GB,60.46666667,-1.3,60,28,N,1,18,W,0,0,557170,1308,1821,851,785,1461,1863,1758,737,1597,1400,0,0,0,0
32680,32660,TVOROYRI,FO,61.55,-6.8,61,33,N,6,48,W,0,0,0,0,0,0,0,0,0,0,0,0,0,0,0,0,0
32690,32660,TORSHAVN,FO,62,-6.75,62,0,N,6,45,W,0,0,0,0,0,0,0,0,0,0,0,0,0,0,0,0,0
32700,32660,KONGSHAVN,FO,62.11666667,-6.733333333,62,7,N,6,44,W,0,0,0,0,0,0,0,0,0,0,0,0,0,0,0,0,0
32720,32660,VESTMANNA,FO,62.15,-7.166666667,62,9,N,7,10,W,0,0,0,0,0,0,0,0,0,0,0,0,0,0,0,0,0
32730,32660,SORVAGUR,FO,62.08333333,-7.25,62,5,N,7,15,W,0,0,0,0,0,0,0,0,0,0,0,0,0,0,0,0,0
32740,32660,FUGLAFJORDUR,FO,62.25,-6.8,62,15,N,6,48,W,0,0,0,0,0,0,0,0,0,0,0,0,0,0,0,0,0
32750,32660,KLAKSVIK,FO,62.23333333,-6.583333333,62,14,N,6,35,W,0,0,0,0,0,0,0,0,0,0,0,0,0,0,0,0,0
32780,32760,SCRABSTER HARBOR,GB,58.61666667,-3.55,58,37,N,3,33,W,0,0,846560,772,1223,674,1921,843,1901,1614,1194,1758,1139,0,0,0,0
32820,32790,ULLAPOOL,GB,57.9,-5.15,57,54,N,5,9,W,0,0,643214,947,1010,573,1208,1564,1507,1843,1571,646,872,0,0,0,0
32830,32790,AULTBEA,GB,57.83333333,-5.583333333,57,50,N,5,35,W,0,0,671797,626,1564,1007,739,1384,1410,1182,1919,862,1380,0,0,0,0
32850,32790,GAIRLOCH,GB,57.71666667,-5.683333333,57,43,N,5,41,W,0,0,509681,1589,1911,1448,500,1106,1042,1947,1787,1783,514,0,0,0,0
32890,32790,PLOCKTON,GB,57.33333333,-5.65,57,20,N,5,39,W,0,0,331331,1820,1750,1672,1743,684,1878,1281,1562,590,1915,0,0,0,0
32900,32790,KYLE OF LOCHALSH,GB,57.28333333,-5.716666667,57,17,N,5,43,W,0,0,887170,1473,1618,1595,1970,1237,1753,1643,1506,657,691,0,0,0,0
32910,32790,KYLEAKIN,GB,57.26666667,-5.733333333,57,16,N,5,44,W,0,0,222750,1987,1789,1944,1955,727,1415,1911,1468,1503,1476,0,0,0,0
32920,32790,BROADFORD BAY,GB,57.25,-5.883333333,57,15,N,5,53,W,0,0,204093,1783,1952,1975,1142,1354,1057,894,1098,1540,1858,0,0,0,0
32930,32790,PORTREE HARBOR,GB,57.41666667,-6.2,57,25,N,6,12,W,0,0,590188,1519,1543,907,1256,761,1813,1500,1724,1811,1159,0,0,0,0
12035,11950,PUERTO MIRANDA,VE,10.76666667,-71.56666667,10,46,N,71,34,W,0,0,0,0,0,0,0,0,0,0,0,0,0,0,0,0,0
12025,11950,LA SALINA,VE,10.36666667,-71.46666667,10,22,N,71,28,W,0,0,0,0,0,0,0,0,0,0,0,0,0,0,0,0,0
61650,61100,HIROSHIMA,JP,34.35,132.4666667,34,21,N,132,28,E,0,0,0,0,0,0,0,0,0,0,0,0,0,0,0,0,0
12820,12700,PORTOCEL,BR,-19.85,-40.05,19,51,S,40,3,W,0,0,0,0,0,0,0,0,0,0,0,0,0,0,0,0,0
12857,12700,SANTA CLARA,BR,-20.88333333,-51.36666667,20,53,S,51,22,W,0,0,0,0,0,0,0,0,0,0,0,0,0,0,0,0,0
12037,11950,EL TABIAZO,VE,10.76666667,-71.53333333,10,46,N,71,32,W,0,0,0,0,0,0,0,0,0,0,0,0,0,0,0,0,0
12117,11950,VENTERMINALS,VE,10.48333333,-68.03333333,10,29,N,68,2,W,0,0,0,0,0,0,0,0,0,0,0,0,0,0,0,0,0
13115,13090,JOSE IGNACIO,UY,-34.95,-54.7,34,57,S,54,42,W,0,0,0,0,0,0,0,0,0,0,0,0,0,0,0,0,0
10025,10016,COCKBURN HARBOR,TC,21.5,-71.53333333,21,30,N,71,32,W,0,0,0,0,0,0,0,0,0,0,0,0,0,0,0,0,0
41590,41560,RISAN,ME,42.51666667,18.7,42,31,N,18,42,E,0,0,0,0,0,0,0,0,0,0,0,0,0,0,0,0,0
41610,41560,KOTOR,ME,42.41666667,18.76666667,42,25,N,18,46,E,0,0,0,0,0,0,0,0,0,0,0,0,0,0,0,0,0
41620,41560,TIVAT,ME,42.43333333,18.7,42,26,N,18,42,E,0,0,0,0,0,0,0,0,0,0,0,0,0,0,0,0,0
41640,41560,BAR,ME,42.08333333,19.08333333,42,5,N,19,5,E,0,0,0,0,0,0,0,0,0,0,0,0,0,0,0,0,0
11336,11325,PORT ALUCROIX,VI,17.7,-64.76666667,17,42,N,64,46,W,0,0,0,0,0,0,0,0,0,0,0,0,0,0,0,0,0
12340,11950,CIUDAD BOLIVAR,VE,8.133333333,-63.55,8,8,N,63,33,W,0,0,0,0,0,0,0,0,0,0,0,0,0,0,0,0,0
46472,46455,DJENO TERMINAL,CG,-4.933333333,11.9,4,56,S,11,54,E,0,0,0,0,0,0,0,0,0,0,0,0,0,0,0,0,0
46473,46455,N'KOSSA TERMINAL,CG,-5.266666667,11.56666667,5,16,S,11,34,E,0,0,0,0,0,0,0,0,0,0,0,0,0,0,0,0,0
46530,46500,MATADI,CD,-5.816666667,13.45,5,49,S,13,27,E,0,0,0,0,0,0,0,0,0,0,0,0,0,0,0,0,0
46131,46120,TIN CAN ISLAND,NG,6.35,3.35,6,21,N,3,21,E,0,0,0,0,0,0,0,0,0,0,0,0,0,0,0,0,0
46150,46120,SAPELE,NG,5.9,5.683333333,5,54,N,5,41,E,0,0,0,0,0,0,0,0,0,0,0,0,0,0,0,0,0
46170,46120,WARRI,NG,5.516666667,5.733333333,5,31,N,5,44,E,0,0,0,0,0,0,0,0,0,0,0,0,0,0,0,0,0
46178,46120,YOHO TERMINAL,NG,4.016666667,7.466666667,4,1,N,7,28,E,0,0,0,0,0,0,0,0,0,0,0,0,0,0,0,0,0
46180,46120,SEA EAGLE TERMINAL,NG,4.8,5.316666667,4,48,N,5,19,E,0,0,0,0,0,0,0,0,0,0,0,0,0,0,0,0,0
46195,46120,QUA IBOE OIL TERMINAL,NG,4.233333333,8.033333333,4,14,N,8,2,E,0,0,0,0,0,0,0,0,0,0,0,0,0,0,0,0,0
46200,46120,PENNINGTON OIL TERMINAL,NG,4.25,5.616666667,4,15,N,5,37,E,0,0,0,0,0,0,0,0,0,0,0,0,0,0,0,0,0
46206,46120,BONNY OFFSHORE TERMINAL,NG,4.183333333,7.233333333,4,11,N,7,14,E,0,0,0,0,0,0,0,0,0,0,0,0,0,0,0,0,0
28390,28250,LOMONOSOV,RU,59.91666667,29.76666667,59,55,N,29,46,E,0,0,0,0,0,0,0,0,0,0,0,0,0,0,0,0,0
28400,28250,KRONSHTADT,RU,59.98333333,29.78333333,59,59,N,29,47,E,0,0,0,0,0,0,0,0,0,0,0,0,0,0,0,0,0
28410,28250,REKA LUGA,RU,59.66666667,28.31666667,59,40,N,28,19,E,0,0,0,0,0,0,0,0,0,0,0,0,0,0,0,0,0
28440,28420,KUNDA,EE,59.53333333,26.53333333,59,32,N,26,32,E,0,0,390515,1954,946,1680,1010,1728,1250,1933,1230,1458,1839,0,0,0,0
28480,28420,TALLINN,EE,59.45,24.76666667,59,27,N,24,46,E,0,0,313351,1163,866,1572,1630,1052,1109,1365,666,1769,1134,0,0,0,0
28505,28420,PALDISKI,EE,59.35,24.03333333,59,21,N,24,2,E,0,0,855116,845,1374,1835,730,1152,939,829,1646,601,705,0,0,0,0
28510,28420,OSMUSSAAR,EE,59.3,23.36666667,59,18,N,23,22,E,0,0,640516,590,824,1519,1242,1371,1667,1935,500,1683,631,0,0,0,0
28550,28420,PARNU,EE,58.38333333,24.5,58,23,N,24,30,E,0,0,122219,905,1419,1179,1181,1023,1490,853,1552,1566,638,0,0,0,0
28610,28600,RIGA,LV,56.95,24.1,56,57,N,24,6,E,0,0,808676,958,1508,1756,1584,655,1450,529,1847,1125,1674,0,0,0,0
28620,28600,VENTSPILS,LV,57.4,21.53333333,57,24,N,21,32,E,0,0,500538,792,822,1500,622,1034,866,1416,1510,1059,640,0,0,0,0
46446,46410,OGUENDJO TERMINAL,GA,-1.466666667,8.916666667,1,28,S,8,55,E,0,0,0,0,0,0,0,0,0,0,0,0,0,0,0,0,0
46453,46410,GAMBA OIL TERMINAL,GA,-2.833333333,10,2,50,S,10,0,E,0,0,0,0,0,0,0,0,0,0,0,0,0,0,0,0,0
46470,46455,POINTE NOIRE,CG,-4.783333333,11.83333333,4,47,S,11,50,E,0,0,0,0,0,0,0,0,0,0,0,0,0,0,0,0,0
46487,46478,MALONGO OIL TERMINAL,AO,-5.433333333,12.08333333,5,26,S,12,5,E,0,0,0,0,0,0,0,0,0,0,0,0,0,0,0,0,0
46490,46478,CABINDA,AO,-5.533333333,12.2,5,32,S,12,12,E,0,0,0,0,0,0,0,0,0,0,0,0,0,0,0,0,0
46510,46500,BANANA,CD,-5.983333333,12.38333333,5,59,S,12,23,E,0,0,0,0,0,0,0,0,0,0,0,0,0,0,0,0,0
46520,46500,BOMA,CD,-5.85,13.05,5,51,S,13,3,E,0,0,0,0,0,0,0,0,0,0,0,0,0,0,0,0,0
46547,46540,PALANCA TERMINAL,AO,-6.95,12.4,6,57,S,12,24,E,0,0,0,0,0,0,0,0,0,0,0,0,0,0,0,0,0
46550,46540,PORTO DO AMBRIZ,AO,-7.833333333,13.1,7,50,S,13,6,E,0,0,0,0,0,0,0,0,0,0,0,0,0,0,0,0,0
46560,46540,LUANDA,AO,-8.8,13.25,8,48,S,13,15,E,0,0,0,0,0,0,0,0,0,0,0,0,0,0,0,0,0
46590,46540,LOBITO,AO,-12.33333333,13.56666667,12,20,S,13,34,E,0,0,0,0,0,0,0,0,0,0,0,0,0,0,0,0,0
46610,46540,NAMIBE,AO,-15.2,12.15,15,12,S,12,9,E,0,0,0,0,0,0,0,0,0,0,0,0,0,0,0,0,0
46670,46660,GEORGETOWN,SH,-7.933333333,-14.41666667,7,56,S,14,25,W,0,0,0,0,0,0,0,0,0,0,0,0,0,0,0,0,0
46205,46120,BONNY,NG,4.45,7.166666667,4,27,N,7,10,E,0,0,0,0,0,0,0,0,0,0,0,0,0,0,0,0,0
45825,45824,BANJUL,GM,13.45,-16.56666667,13,27,N,16,34,W,0,0,0,0,0,0,0,0,0,0,0,0,0,0,0,0,0
45835,45833,RIO CACHEU,GW,12.28333333,-16.23333333,12,17,N,16,14,W,0,0,0,0,0,0,0,0,0,0,0,0,0,0,0,0,0
45838,45833,BISSAU,GW,11.86666667,-15.63333333,11,52,N,15,38,W,0,0,0,0,0,0,0,0,0,0,0,0,0,0,0,0,0
45845,45842,VICTORIA,GN,10.81666667,-14.56666667,10,49,N,14,34,W,0,0,0,0,0,0,0,0,0,0,0,0,0,0,0,0,0
45850,45842,KAMSAR,GN,10.63333333,-14.61666667,10,38,N,14,37,W,0,0,0,0,0,0,0,0,0,0,0,0,0,0,0,0,0
45855,45842,CONAKRY,GN,9.516666667,-13.71666667,9,31,N,13,43,W,0,0,0,0,0,0,0,0,0,0,0,0,0,0,0,0,0
45857,45842,BENTI,GN,9.166666667,-13.2,9,10,N,13,12,W,0,0,0,0,0,0,0,0,0,0,0,0,0,0,0,0,0
60150,59850,WEIHAI,CN,37.5,122.1,37,30,N,122,6,E,0,0,0,0,0,0,0,0,0,0,0,0,0,0,0,0,0
60160,59850,YANTAI,CN,37.55,121.45,37,33,N,121,27,E,0,0,0,0,0,0,0,0,0,0,0,0,0,0,0,0,0
60170,59850,LONGKOU GANG,CN,37.63333333,120.2833333,37,38,N,120,17,E,0,0,0,0,0,0,0,0,0,0,0,0,0,0,0,0,0
60180,59850,DAGU TANGGU,CN,38.96666667,117.6666667,38,58,N,117,40,E,0,0,0,0,0,0,0,0,0,0,0,0,0,0,0,0,0
60190,59850,TIANJIN XIN GANG,CN,38.96666667,117.8333333,38,58,N,117,50,E,0,0,0,0,0,0,0,0,0,0,0,0,0,0,0,0,0
60210,59850,HULUDAO GANG,CN,40.7,120.9833333,40,42,N,120,59,E,0,0,0,0,0,0,0,0,0,0,0,0,0,0,0,0,0
60220,59850,YINGKOU,CN,40.68333333,122.2333333,40,41,N,122,14,E,0,0,0,0,0,0,0,0,0,0,0,0,0,0,0,0,0
60240,59850,LUSHUN,CN,38.78333333,121.25,38,47,N,121,15,E,0,0,0,0,0,0,0,0,0,0,0,0,0,0,0,0,0
60250,59850,DALIAN,CN,38.91666667,121.6666667,38,55,N,121,40,E,0,0,0,0,0,0,0,0,0,0,0,0,0,0,0,0,0
38670,38600,PUERTO DE ALCUDIA,ES,39.83333333,3.133333333,39,50,N,3,8,E,0,0,320169,1835,1614,1100,1417,1857,1593,1409,545,808,1512,0,0,0,0
38690,38600,MAHON,ES,39.88333333,4.266666667,39,53,N,4,16,E,0,0,188000,1785,1659,1077,815,1521,934,974,1000,1490,1958,0,0,0,0
38590,38340,ROSAS,ES,42.26666667,3.183333333,42,16,N,3,11,E,0,0,686297,1760,1229,1492,1402,1913,1732,1242,1854,1062,1293,0,0,0,0
38720,38710,PORT-VENDRES,FR,42.51666667,3.116666667,42,31,N,3,7,E,0,0,334485,1817,851,896,1609,613,690,974,1618,1538,653,0,0,0,0
38730,38710,PORT-LA-NOUVELLE,FR,43.01666667,3.066666667,43,1,N,3,4,E,0,0,310856,1880,1489,669,1881,1725,1073,955,613,1365,715,0,0,0,0
38750,38710,SETE,FR,43.4,3.7,43,24,N,3,42,E,0,0,52505,838,935,1560,608,929,844,1317,1176,1945,1550,0,0,0,0
38770,38710,PORT SAINT LOUIS DU RHONE,FR,43.38333333,4.816666667,43,23,N,4,49,E,0,0,611326,853,1077,1262,1549,1076,1740,1012,555,1599,722,0,0,0,0
38775,38710,FOS,FR,43.41666667,4.883333333,43,25,N,4,53,E,0,0,842022,579,817,1323,668,1038,1773,1787,1080,1004,684,0,0,0,0
38780,38710,PORT-DE-BOUC,FR,43.4,4.983333333,43,24,N,4,59,E,0,0,701650,916,1556,1631,935,1843,1158,1049,594,1802,1352,0,0,0,0
38810,38710,MARSEILLE,FR,43.31666667,5.366666667,43,19,N,5,22,E,0,0,340895,1257,1711,1794,711,791,1975,796,1288,1595,1233,0,0,0,0
38920,38710,SAINT-TROPEZ,FR,43.26666667,6.633333333,43,16,N,6,38,E,0,0,337152,1546,1389,1576,1223,1831,1465,1576,1929,1756,600,0,0,0,0
38940,38710,SAINT-RAPHAEL,FR,43.41666667,6.766666667,43,25,N,6,46,E,0,0,504565,1605,1354,520,615,1396,1230,656,1029,714,1278,0,0,0,0
38960,38710,CANNES,FR,43.55,7.016666667,43,33,N,7,1,E,0,0,570950,984,1600,867,1081,1953,1908,1577,542,1387,1530,0,0,0,0
38980,38710,ANTIBES,FR,43.58333333,7.133333333,43,35,N,7,8,E,0,0,513808,1730,1523,532,1872,695,1733,1632,987,1360,1790,0,0,0,0
38990,38710,NICE,FR,43.7,7.283333333,43,42,N,7,17,E,0,0,198985,1624,1368,1077,1316,616,1417,1254,968,1961,1786,0,0,0,0
39000,38710,VILLEFRANCHE,FR,43.7,7.316666667,43,42,N,7,19,E,0,0,605913,1131,1325,938,1700,1111,1737,1892,742,937,1262,0,0,0,0
39025,39020,MONACO,MC,43.73333333,7.416666667,43,44,N,7,25,E,0,0,0,0,0,0,0,0,0,0,0,0,0,0,0,0,0
39060,39040,BASTIA,FR,42.7,9.45,42,42,N,9,27,E,0,0,332265,742,1671,1836,1604,1979,1366,659,812,1538,777,0,0,0,0
39080,39040,BONIFACIO,FR,41.38333333,9.166666667,41,23,N,9,10,E,0,0,273961,1008,1460,1455,1948,905,1500,1202,780,1986,1184,0,0,0,0
39090,39040,PORT DE PROPRIANO,FR,41.68333333,8.9,41,41,N,8,54,E,0,0,744544,1342,1846,867,1301,747,1952,1835,1088,667,998,0,0,0,0
39100,39040,PORT D' AJACCIO,FR,41.91666667,8.75,41,55,N,8,45,E,0,0,149445,1263,507,1325,1319,1921,1010,1088,1568,748,1344,0,0,0,0
39110,39040,CALVI,FR,42.56666667,8.75,42,34,N,8,45,E,0,0,339037,1482,1050,827,878,1264,1826,1088,546,885,669,0,0,0,0
39120,39040,L'ILE ROUSSE,FR,42.63333333,8.933333333,42,38,N,8,56,E,0,0,122304,1992,549,1339,806,579,1481,1114,516,1719,930,0,0,0,0
39140,39130,LA MADDALENA,IT,41.2,9.416666667,41,12,N,9,25,E,0,0,281199,1025,1631,815,1866,1095,919,1615,1406,561,1476,0,0,0,0
39180,39130,OLBIA,IT,40.91666667,9.5,40,55,N,9,30,E,0,0,548051,1420,1943,1943,1053,1789,893,814,1287,535,1471,0,0,0,0
39190,39130,ARBATAX,IT,39.93333333,9.7,39,56,N,9,42,E,0,0,676401,1978,838,1284,1609,1556,1867,1711,1632,1059,756,0,0,0,0
39210,39130,CAGLIARI,IT,39.21666667,9.116666667,39,13,N,9,7,E,0,0,536518,565,602,1717,822,1595,756,1843,783,1295,871,0,0,0,0
39215,39130,SARROCH OIL TERMINAL,IT,39.08333333,9.033333333,39,5,N,9,2,E,0,0,661736,1006,1372,870,1021,1046,1327,1389,658,1544,997,0,0,0,0
51680,51650,VICTORIA,MY,5.283333333,115.2333333,5,17,N,115,14,E,0,0,0,0,0,0,0,0,0,0,0,0,0,0,0,0,0
51690,51650,KOTA KINABALU,MY,5.983333333,116.0666667,5,59,N,116,4,E,0,0,0,0,0,0,0,0,0,0,0,0,0,0,0,0,0
51710,51650,KUDAT,MY,6.883333333,116.85,6,53,N,116,51,E,0,0,0,0,0,0,0,0,0,0,0,0,0,0,0,0,0
51720,51650,PELABUHAN SANDAKAN,MY,5.833333333,118.1166667,5,50,N,118,7,E,0,0,0,0,0,0,0,0,0,0,0,0,0,0,0,0,0
51730,51650,LAHAD DATU,MY,5.016666667,118.3166667,5,1,N,118,19,E,0,0,0,0,0,0,0,0,0,0,0,0,0,0,0,0,0
51770,51760,TANJUNG ARANG  (BUNYU),ID,3.466666667,117.8333333,3,28,N,117,50,E,0,0,0,0,0,0,0,0,0,0,0,0,0,0,0,0,0
51780,51760,LINGKAS,ID,3.283333333,117.6,3,17,N,117,36,E,0,0,0,0,0,0,0,0,0,0,0,0,0,0,0,0,0
51800,51760,TANJUNGREDEB,ID,2.15,117.4833333,2,9,N,117,29,E,0,0,0,0,0,0,0,0,0,0,0,0,0,0,0,0,0
51810,51760,BENOA,ID,0.9833333333,117.9666667,0,59,N,117,58,E,0,0,0,0,0,0,0,0,0,0,0,0,0,0,0,0,0
51811,51760,BONTANG LNG TERMINAL,ID,0.1,117.4833333,0,6,N,117,29,E,0,0,0,0,0,0,0,0,0,0,0,0,0,0,0,0,0
51815,51760,TANJUNG SANTAN,ID,-0.1,117.5333333,0,6,S,117,32,E,0,0,0,0,0,0,0,0,0,0,0,0,0,0,0,0,0
11935,11860,POZOS COLORADOS,CO,11.15,-74.25,11,9,N,74,15,W,0,0,0,0,0,0,0,0,0,0,0,0,0,0,0,0,0
11930,11860,BARRANQUILLA,CO,10.96666667,-74.76666667,10,58,N,74,46,W,0,0,0,0,0,0,0,0,0,0,0,0,0,0,0,0,0
9875,9820,BAHIA DE LAS MINAS,PA,9.4,-79.81666667,9,24,N,79,49,W,0,0,0,0,0,0,0,0,0,0,0,0,0,0,0,0,0
9860,9820,PUERTO CRISTOBAL,PA,9.35,-79.91666667,9,21,N,79,55,W,0,0,0,0,0,0,0,0,0,0,0,0,0,0,0,0,0
9805,9800,PUERTO MOIN,CR,10,-83.08333333,10,0,N,83,5,W,0,0,0,0,0,0,0,0,0,0,0,0,0,0,0,0,0
9770,9740,BLUEFIELDS,NI,12.01666667,-83.75,12,1,N,83,45,W,0,0,0,0,0,0,0,0,0,0,0,0,0,0,0,0,0
45753,45700,TANGIER-MEDITERRANEAN,MA,35.9,-5.516666667,35,54,N,5,31,W,0,0,0,0,0,0,0,0,0,0,0,0,0,0,0,0,0
9665,9630,PUERTO ESTE,HN,16.08333333,-86.9,16,5,N,86,54,W,0,0,0,0,0,0,0,0,0,0,0,0,0,0,0,0,0
41415,40877,NEUM,BA,42.91666667,17.6,42,55,N,17,36,E,0,0,0,0,0,0,0,0,0,0,0,0,0,0,0,0,0
9590,9580,BELIZE CITY,BZ,17.5,-88.18333333,17,30,N,88,11,W,0,0,0,0,0,0,0,0,0,0,0,0,0,0,0,0,0
9500,9350,CAMPECHE,MX,19.85,-90.55,19,51,N,90,33,W,0,0,0,0,0,0,0,0,0,0,0,0,0,0,0,0,0
9440,9350,FRONTERA,MX,18.53333333,-92.65,18,32,N,92,39,W,0,0,0,0,0,0,0,0,0,0,0,0,0,0,0,0,0
9410,9350,NANCHITAL,MX,18.06666667,-94.41666667,18,4,N,94,25,W,0,0,0,0,0,0,0,0,0,0,0,0,0,0,0,0,0
48770,48610,MAGDALLA,IN,21.15,72.75,21,9,N,72,45,E,0,0,0,0,0,0,0,0,0,0,0,0,0,0,0,0,0
48790,48610,HAZIRA,IN,21.08333333,72.63333333,21,5,N,72,38,E,0,0,0,0,0,0,0,0,0,0,0,0,0,0,0,0,0
62150,61100,BEPPU,JP,33.31666667,131.5166667,33,19,N,131,31,E,0,0,0,0,0,0,0,0,0,0,0,0,0,0,0,0,0
62130,61100,KOKURA KO,JP,33.88333333,130.8833333,33,53,N,130,53,E,0,0,0,0,0,0,0,0,0,0,0,0,0,0,0,0,0
61700,61100,SHIMONOSEKI,JP,33.93333333,130.9333333,33,56,N,130,56,E,0,0,0,0,0,0,0,0,0,0,0,0,0,0,0,0,0
48900,48610,RATNAGIRI,IN,16.98333333,73.28333333,16,59,N,73,17,E,0,0,0,0,0,0,0,0,0,0,0,0,0,0,0,0,0
49170,48610,TRIVANDRUM,IN,8.483333333,76.95,8,29,N,76,57,E,0,0,0,0,0,0,0,0,0,0,0,0,0,0,0,0,0
61855,61100,SHIMMINATO,JP,36.76666667,137.1166667,36,46,N,137,7,E,0,0,0,0,0,0,0,0,0,0,0,0,0,0,0,0,0
15270,15240,GUAYAQUIL,EC,-2.2,-79.88333333,2,12,S,79,53,W,0,0,0,0,0,0,0,0,0,0,0,0,0,0,0,0,0
36855,36060,MONTOIR,FR,47.3,-2.133333333,47,18,N,2,8,W,0,0,519707,1794,977,1966,572,920,1603,1687,1986,1766,1491,0,0,0,0
16380,16000,POINT SAN PABLO,US,37.96666667,-122.4333333,37,58,N,122,26,W,0,0,0,0,0,0,0,0,0,0,0,0,0,0,0,0,0
16385,16000,SAUSALITO,US,37.85,-122.4833333,37,51,N,122,29,W,0,0,0,0,0,0,0,0,0,0,0,0,0,0,0,0,0
16390,16000,PINOLE POINT,US,38.01666667,-122.3666667,38,1,N,122,22,W,0,0,0,0,0,0,0,0,0,0,0,0,0,0,0,0,0
16400,16000,OLEUM,US,38.05,-122.2666667,38,3,N,122,16,W,0,0,0,0,0,0,0,0,0,0,0,0,0,0,0,0,0
16410,16000,MARE ISLAND,US,38.1,-122.2666667,38,6,N,122,16,W,0,0,0,0,0,0,0,0,0,0,0,0,0,0,0,0,0
16420,16000,SOUTH VALLEJO,US,38.08333333,-122.25,38,5,N,122,15,W,0,0,0,0,0,0,0,0,0,0,0,0,0,0,0,0,0
16440,16000,CROCKETT,US,38.05,-122.2166667,38,3,N,122,13,W,0,0,0,0,0,0,0,0,0,0,0,0,0,0,0,0,0
16450,16000,PORT COSTA,US,38.05,-122.1833333,38,3,N,122,11,W,0,0,0,0,0,0,0,0,0,0,0,0,0,0,0,0,0
28640,28600,LIEPAJA,LV,56.51666667,21.01666667,56,31,N,21,1,E,0,0,783234,1575,519,1288,1918,689,543,1667,815,1137,677,0,0,0,0
28660,28650,KLAIPEDA,LT,55.71666667,21.11666667,55,43,N,21,7,E,0,0,244942,1546,1360,1534,1088,1203,1125,1839,505,1265,609,0,0,0,0
28680,28670,BALTIYSK,RU,54.63333333,19.9,54,38,N,19,54,E,0,0,0,0,0,0,0,0,0,0,0,0,0,0,0,0,0
28690,28670,KALININGRAD,RU,54.7,20.48333333,54,42,N,20,29,E,0,0,0,0,0,0,0,0,0,0,0,0,0,0,0,0,0
28710,28700,GDANSK,PL,54.35,18.66666667,54,21,N,18,40,E,0,0,0,0,0,0,0,0,0,0,0,0,0,0,0,0,0
28715,28700,PORT POLNOCHNY,PL,54.4,18.71666667,54,24,N,18,43,E,0,0,0,0,0,0,0,0,0,0,0,0,0,0,0,0,0
28720,28700,NOWY PORT,PL,54.41666667,18.66666667,54,25,N,18,40,E,0,0,0,0,0,0,0,0,0,0,0,0,0,0,0,0,0
28740,28700,GDYNIA,PL,54.53333333,18.55,54,32,N,18,33,E,0,0,0,0,0,0,0,0,0,0,0,0,0,0,0,0,0
28770,28700,USTKA,PL,54.58333333,16.85,54,35,N,16,51,E,0,0,0,0,0,0,0,0,0,0,0,0,0,0,0,0,0
28790,28700,DARLOWO,PL,54.43333333,16.41666667,54,26,N,16,25,E,0,0,0,0,0,0,0,0,0,0,0,0,0,0,0,0,0
28800,28700,KOLOBRZEG,PL,54.21666667,15.55,54,13,N,15,33,E,0,0,0,0,0,0,0,0,0,0,0,0,0,0,0,0,0
28820,28700,SWINOUJSCIE,PL,53.91666667,14.26666667,53,55,N,14,16,E,0,0,0,0,0,0,0,0,0,0,0,0,0,0,0,0,0
28823,28700,SZCZECIN,PL,53.41666667,14.55,53,25,N,14,33,E,0,0,0,0,0,0,0,0,0,0,0,0,0,0,0,0,0
28828,28826,WOLGAST,DE,54.05,13.78333333,54,3,N,13,47,E,0,0,231505,960,869,1478,896,700,1541,541,1733,735,1353,0,0,0,0
28840,28826,SASSNITZ,DE,54.51666667,13.65,54,31,N,13,39,E,0,0,513241,870,968,536,1204,964,1260,820,1850,1598,1845,0,0,0,0
28170,27380,EKENAS,FI,59.98333333,23.43333333,59,59,N,23,26,E,0,0,746173,1698,649,1088,717,1587,1292,949,532,1732,850,0,0,0,0
28180,27380,JUSSARO,FI,59.83333333,23.56666667,59,50,N,23,34,E,0,0,514565,530,1215,1122,884,1773,814,1321,1622,838,1439,0,0,0,0
28185,27380,PORKKALA,FI,60.08333333,24.38333333,60,5,N,24,23,E,0,0,218227,1328,1273,938,786,1172,1407,1011,567,1516,1013,0,0,0,0
27280,24975,KARLSBORG,SE,65.8,23.28333333,65,48,N,23,17,E,0,0,0,0,0,0,0,0,0,0,0,0,0,0,0,0,0
27330,24975,SANDVIK,SE,65.73333333,23.76666667,65,44,N,23,46,E,0,0,0,0,0,0,0,0,0,0,0,0,0,0,0,0,0
27400,27380,TORNIO,FI,65.76666667,24.16666667,65,46,N,24,10,E,0,0,850818,1036,1357,1445,1027,1573,1685,1717,965,1547,1432,0,0,0,0
27410,27380,KEMI,FI,65.73333333,24.56666667,65,44,N,24,34,E,0,0,88342,750,880,1669,1512,773,1976,1807,1542,1100,1335,0,0,0,0
27520,27380,OULU,FI,65.01666667,25.4,65,1,N,25,24,E,0,0,262536,770,797,1886,1069,1308,1784,1188,1829,1408,1347,0,0,0,0
27530,27380,RAAHE,FI,64.68333333,24.41666667,64,41,N,24,25,E,0,0,161898,1826,589,555,1483,1560,986,1255,954,651,1410,0,0,0,0
27540,27380,HIMANKA,FI,64,23.65,64,0,N,23,39,E,0,0,355927,1334,1530,1484,1815,1098,670,1855,1248,1199,661,0,0,0,0
27560,27380,KOKKOLA,FI,63.85,23.01666667,63,51,N,23,1,E,0,0,139478,1138,1818,1615,1233,749,1674,1507,764,1651,1497,0,0,0,0
27570,27380,JAKOBSTAD,FI,63.68333333,22.66666667,63,41,N,22,40,E,0,0,286913,1884,1383,1582,1698,1689,1071,1565,742,1304,503,0,0,0,0
27580,27380,NYKARLEBY,FI,63.51666667,22.53333333,63,31,N,22,32,E,0,0,506409,1109,1361,1171,1764,538,1418,1907,941,801,913,0,0,0,0
27590,27380,KANTLAX,FI,63.41666667,22.28333333,63,25,N,22,17,E,0,0,88273,1630,839,1302,939,1026,583,1075,1016,776,1381,0,0,0,0
27610,27380,HELLNAS,FI,63.28333333,22.23333333,63,17,N,22,14,E,0,0,120856,1380,1215,641,1397,624,1628,529,1784,1132,1731,0,0,0,0
27650,27380,VAASA,FI,63.1,21.58333333,63,6,N,21,35,E,0,0,743781,1736,1795,1939,1513,732,978,1907,1145,1053,1551,0,0,0,0
27670,27380,KASKINEN,FI,62.38333333,21.23333333,62,23,N,21,14,E,0,0,456285,1973,1358,1644,1296,1199,1704,647,1313,1684,1709,0,0,0,0
27680,27380,KRISTINESTAD,FI,62.28333333,21.4,62,17,N,21,24,E,0,0,129824,1194,571,1844,526,1056,1561,1264,1993,1368,1449,0,0,0,0
27750,27380,MANTYLUOTO,FI,61.6,21.48333333,61,36,N,21,29,E,0,0,357968,516,773,839,815,1512,1379,718,1196,1720,1518,0,0,0,0
27755,27380,TAHKOLUOTO,FI,61.63333333,21.4,61,38,N,21,24,E,0,0,824737,1238,860,1999,819,1141,1337,1897,1026,1981,1587,0,0,0,0
14190,14070,PUERTO NATALES,CL,-51.71666667,-72.56666667,51,43,S,72,34,W,0,0,0,0,0,0,0,0,0,0,0,0,0,0,0,0,0
14197,14070,PUERTO CHACABUCO,CL,-45.46666667,-72.83333333,45,28,S,72,50,W,0,0,0,0,0,0,0,0,0,0,0,0,0,0,0,0,0
14220,14070,PUERTO CASTRO,CL,-42.48333333,-73.76666667,42,29,S,73,46,W,0,0,0,0,0,0,0,0,0,0,0,0,0,0,0,0,0
14250,14070,PUERTO QUEMCHI,CL,-42.15,-73.48333333,42,9,S,73,29,W,0,0,0,0,0,0,0,0,0,0,0,0,0,0,0,0,0
14270,14070,PUERTO MONTT,CL,-41.48333333,-72.96666667,41,29,S,72,58,W,0,0,0,0,0,0,0,0,0,0,0,0,0,0,0,0,0
14330,14070,PUERTO DE CORRAL,CL,-39.86666667,-73.43333333,39,52,S,73,26,W,0,0,0,0,0,0,0,0,0,0,0,0,0,0,0,0,0
14340,14070,BAHIA DE VALDIVIA,CL,-39.8,-73.25,39,48,S,73,15,W,0,0,0,0,0,0,0,0,0,0,0,0,0,0,0,0,0
14380,14070,LOTA,CL,-37.1,-73.15,37,6,S,73,9,W,0,0,0,0,0,0,0,0,0,0,0,0,0,0,0,0,0
60280,60270,NAMPO,KP,38.71666667,125.4,38,43,N,125,24,E,0,0,0,0,0,0,0,0,0,0,0,0,0,0,0,0,0
60290,60270,KYOMIP'O,KP,38.73333333,125.6166667,38,44,N,125,37,E,0,0,0,0,0,0,0,0,0,0,0,0,0,0,0,0,0
60310,60270,HAEJU HANG,KP,38,125.7,38,0,N,125,42,E,0,0,0,0,0,0,0,0,0,0,0,0,0,0,0,0,0
60320,60315,INCHON,KR,37.46666667,126.6166667,37,28,N,126,37,E,0,0,0,0,0,0,0,0,0,0,0,0,0,0,0,0,0
60330,60315,KUNSAN,KR,35.98333333,126.6166667,35,59,N,126,37,E,0,0,0,0,0,0,0,0,0,0,0,0,0,0,0,0,0
60340,60315,MOKPO,KR,34.78333333,126.3833333,34,47,N,126,23,E,0,0,0,0,0,0,0,0,0,0,0,0,0,0,0,0,0
60350,60315,CHEJU HANG,KR,33.51666667,126.5333333,33,31,N,126,32,E,0,0,0,0,0,0,0,0,0,0,0,0,0,0,0,0,0
60370,60315,YOSU,KR,34.73333333,127.75,34,44,N,127,45,E,0,0,0,0,0,0,0,0,0,0,0,0,0,0,0,0,0
59340,57960,SURIGAO CITY,PH,9.783333333,125.5,9,47,N,125,30,E,0,0,0,0,0,0,0,0,0,0,0,0,0,0,0,0,0
59345,57960,NASIPIT PORT,PH,8.983333333,125.3333333,8,59,N,125,20,E,0,0,0,0,0,0,0,0,0,0,0,0,0,0,0,0,0
59380,57960,HINATUAN,PH,8.366666667,126.3333333,8,22,N,126,20,E,0,0,0,0,0,0,0,0,0,0,0,0,0,0,0,0,0
59385,57960,MANGAGOY,PH,8.233333333,126.3166667,8,14,N,126,19,E,0,0,0,0,0,0,0,0,0,0,0,0,0,0,0,0,0
59400,57960,MATI,PH,6.95,126.2166667,6,57,N,126,13,E,0,0,0,0,0,0,0,0,0,0,0,0,0,0,0,0,0
59430,57960,DAVAO,PH,7.066666667,125.6166667,7,4,N,125,37,E,0,0,0,0,0,0,0,0,0,0,0,0,0,0,0,0,0
59485,57960,GENERAL SANTOS,PH,6.116666667,125.1833333,6,7,N,125,11,E,0,0,0,0,0,0,0,0,0,0,0,0,0,0,0,0,0
59500,57960,POLLOC (COTABATO),PH,7.35,124.2166667,7,21,N,124,13,E,0,0,0,0,0,0,0,0,0,0,0,0,0,0,0,0,0
59530,57960,PAGADIAN,PH,7.833333333,123.4333333,7,50,N,123,26,E,0,0,0,0,0,0,0,0,0,0,0,0,0,0,0,0,0
59550,57960,MARGOSATUBIG,PH,7.583333333,123.1666667,7,35,N,123,10,E,0,0,0,0,0,0,0,0,0,0,0,0,0,0,0,0,0
59575,57960,SANTA CLARA,PH,7.783333333,122.6833333,7,47,N,122,41,E,0,0,0,0,0,0,0,0,0,0,0,0,0,0,0,0,0
59580,57960,ZAMBOANGA,PH,6.9,122.0666667,6,54,N,122,4,E,0,0,0,0,0,0,0,0,0,0,0,0,0,0,0,0,0
59670,57960,JIMENEZ,PH,8.333333333,123.8666667,8,20,N,123,52,E,0,0,0,0,0,0,0,0,0,0,0,0,0,0,0,0,0
59680,57960,PORT OZAMIS,PH,8.133333333,123.85,8,8,N,123,51,E,0,0,0,0,0,0,0,0,0,0,0,0,0,0,0,0,0
59700,57960,ILIGAN,PH,8.233333333,124.2333333,8,14,N,124,14,E,0,0,0,0,0,0,0,0,0,0,0,0,0,0,0,0,0
59710,57960,CAGAYAN DE ORO,PH,8.5,124.6666667,8,30,N,124,40,E,0,0,0,0,0,0,0,0,0,0,0,0,0,0,0,0,0
59720,57960,BUGO,PH,8.516666667,124.75,8,31,N,124,45,E,0,0,0,0,0,0,0,0,0,0,0,0,0,0,0,0,0
59725,57960,VILLANUEVA,PH,8.583333333,124.7666667,8,35,N,124,46,E,0,0,0,0,0,0,0,0,0,0,0,0,0,0,0,0,0
59760,57960,BUTUAN CITY,PH,8.95,125.5333333,8,57,N,125,32,E,0,0,0,0,0,0,0,0,0,0,0,0,0,0,0,0,0
59770,57960,BASILIAN CITY (ISABELA),PH,6.716666667,121.9666667,6,43,N,121,58,E,0,0,0,0,0,0,0,0,0,0,0,0,0,0,0,0,0
59780,57960,PORT HOLLAND,PH,6.55,121.8666667,6,33,N,121,52,E,0,0,0,0,0,0,0,0,0,0,0,0,0,0,0,0,0
59800,57960,JOLO,PH,6.05,121,6,3,N,121,0,E,0,0,0,0,0,0,0,0,0,0,0,0,0,0,0,0,0
59820,57960,SIASI,PH,5.55,120.8166667,5,33,N,120,49,E,0,0,0,0,0,0,0,0,0,0,0,0,0,0,0,0,0
45862,45860,FREETOWN,SL,8.5,-13.23333333,8,30,N,13,14,W,0,0,741736,1483,541,1034,1582,1110,1998,1363,1784,1924,1895,0,0,0,0
45865,45860,PEPEL,SL,8.583333333,-13.05,8,35,N,13,3,W,0,0,559544,1641,1314,1948,653,1785,1420,851,629,707,1099,0,0,0,0
45867,45860,BONTHE,SL,7.533333333,-12.5,7,32,N,12,30,W,0,0,146244,1243,1299,1306,1225,707,1482,1928,524,1107,709,0,0,0,0
45880,45869,PORTO GRANDE,CV,16.88333333,-25,16,53,N,25,0,W,0,0,0,0,0,0,0,0,0,0,0,0,0,0,0,0,0
45910,45869,PORTO DA PRAIA,CV,14.91666667,-23.51666667,14,55,N,23,31,W,0,0,0,0,0,0,0,0,0,0,0,0,0,0,0,0,0
45940,45920,MONROVIA,LR,6.316666667,-10.81666667,6,19,N,10,49,W,0,0,0,0,0,0,0,0,0,0,0,0,0,0,0,0,0
45950,45920,BUCHANAN,LR,5.866666667,-10.06666667,5,52,N,10,4,W,0,0,0,0,0,0,0,0,0,0,0,0,0,0,0,0,0
45952,45920,GREENVILLE,LR,4.983333333,-9.05,4,59,N,9,3,W,0,0,0,0,0,0,0,0,0,0,0,0,0,0,0,0,0
45955,45920,CAPE PALMAS,LR,4.366666667,-7.716666667,4,22,N,7,43,W,0,0,0,0,0,0,0,0,0,0,0,0,0,0,0,0,0
45963,45960,SAN PEDRO,CI,4.733333333,-6.616666667,4,44,N,6,37,W,0,0,0,0,0,0,0,0,0,0,0,0,0,0,0,0,0
51820,51760,SAMARINDA,ID,-0.5166666667,117.1166667,0,31,S,117,7,E,0,0,0,0,0,0,0,0,0,0,0,0,0,0,0,0,0
51830,51760,SENIPAH OIL TERMINAL,ID,-0.95,117.1666667,0,57,S,117,10,E,0,0,0,0,0,0,0,0,0,0,0,0,0,0,0,0,0
51840,51760,BALIKPAPAN,ID,-1.25,116.8166667,1,15,S,116,49,E,0,0,0,0,0,0,0,0,0,0,0,0,0,0,0,0,0
51845,51760,LAWI LAWI OIL TERMINAL,ID,-1.45,116.7666667,1,27,S,116,46,E,0,0,0,0,0,0,0,0,0,0,0,0,0,0,0,0,0
51850,51760,GUNUNG BATU BESAR,ID,-2.616666667,116.3,2,37,S,116,18,E,0,0,0,0,0,0,0,0,0,0,0,0,0,0,0,0,0
51860,51760,KOTA BARU,ID,-3.233333333,116.2166667,3,14,S,116,13,E,0,0,0,0,0,0,0,0,0,0,0,0,0,0,0,0,0
51890,51760,BANJARMASIN,ID,-3.333333333,114.5833333,3,20,S,114,35,E,0,0,0,0,0,0,0,0,0,0,0,0,0,0,0,0,0
51920,51760,KUMAI,ID,-2.75,111.7166667,2,45,S,111,43,E,0,0,0,0,0,0,0,0,0,0,0,0,0,0,0,0,0
51941,51760,PONTIANAK,ID,-0.01666666667,109.3333333,0,1,S,109,20,E,0,0,0,0,0,0,0,0,0,0,0,0,0,0,0,0,0
52040,51970,MANADO,ID,1.5,124.8333333,1,30,N,124,50,E,0,0,0,0,0,0,0,0,0,0,0,0,0,0,0,0,0
52090,51970,GORONTALO,ID,0.5,123.05,0,30,N,123,3,E,0,0,0,0,0,0,0,0,0,0,0,0,0,0,0,0,0
52140,51970,POSO,ID,-1.366666667,120.75,1,22,S,120,45,E,0,0,0,0,0,0,0,0,0,0,0,0,0,0,0,0,0
52230,51970,KOLONODALE,ID,-1.983333333,121.3333333,1,59,S,121,20,E,0,0,0,0,0,0,0,0,0,0,0,0,0,0,0,0,0
51560,51550,KUCHING,MY,1.566666667,110.35,1,34,N,110,21,E,0,0,0,0,0,0,0,0,0,0,0,0,0,0,0,0,0
51580,51550,SIBU,MY,2.283333333,111.8166667,2,17,N,111,49,E,0,0,0,0,0,0,0,0,0,0,0,0,0,0,0,0,0
51583,51550,SARIKEI,MY,2.133333333,111.5333333,2,8,N,111,32,E,0,0,0,0,0,0,0,0,0,0,0,0,0,0,0,0,0
50805,50515,SUNGAIPAKNING,ID,1.35,102.1666667,1,21,N,102,10,E,0,0,0,0,0,0,0,0,0,0,0,0,0,0,0,0,0
50910,50900,FLYING FISH COVE,CX,-10.41666667,105.7,10,25,S,105,42,E,0,0,0,0,0,0,0,0,0,0,0,0,0,0,0,0,0
50925,50920,BANTEN,ID,-6.016666667,105.9666667,6,1,S,105,58,E,0,0,0,0,0,0,0,0,0,0,0,0,0,0,0,0,0
50930,50920,ANYER LOR,ID,-6.05,105.9166667,6,3,S,105,55,E,0,0,0,0,0,0,0,0,0,0,0,0,0,0,0,0,0
50935,50920,TANJUNG SEKONG,ID,-5.916666667,106,5,55,S,106,0,E,0,0,0,0,0,0,0,0,0,0,0,0,0,0,0,0,0
50970,50920,JAKARTA,ID,-6.1,106.8833333,6,6,S,106,53,E,0,0,0,0,0,0,0,0,0,0,0,0,0,0,0,0,0
51010,50920,CIREBON,ID,-6.716666667,108.5666667,6,43,S,108,34,E,0,0,0,0,0,0,0,0,0,0,0,0,0,0,0,0,0
38630,38600,PALMA DE MALLORCA,ES,39.56666667,2.633333333,39,34,N,2,38,E,0,0,760828,1048,1436,1690,1310,1271,1172,1005,1727,1478,890,0,0,0,0
39220,39130,PORTO PONTE ROMANO,IT,39.05,8.466666667,39,3,N,8,28,E,0,0,532631,1729,974,716,1887,708,1221,924,1743,1019,1252,0,0,0,0
38150,38140,SANTA CRUZ DE LA PALMA,ES,28.68333333,-17.75,28,41,N,17,45,W,0,0,67799,621,834,1198,802,991,1576,1828,617,1041,545,0,0,0,0
38160,38140,SANTA CRUZ DE TENERIFE,ES,28.46666667,-16.23333333,28,28,N,16,14,W,0,0,490297,1860,703,974,623,1274,1702,1638,1653,1100,1374,0,0,0,0
38170,38140,LAS PALMAS,ES,28.15,-15.41666667,28,9,N,15,25,W,0,0,346466,803,1590,976,990,866,1235,585,704,1012,1168,0,0,0,0
38180,38140,PUERTO DEL ROSARIO,ES,28.5,-13.85,28,30,N,13,51,W,0,0,397410,1359,1755,1788,928,1964,1613,983,1037,1107,1196,0,0,0,0
38190,38140,ARRECIFE,ES,28.95,-13.53333333,28,57,N,13,32,W,0,0,195336,1302,1456,1289,966,767,1271,1677,1301,1960,896,0,0,0,0
38220,38200,HUELVA,ES,37.25,-6.95,37,15,N,6,57,W,0,0,565121,1869,1251,1023,699,1614,1943,1996,696,583,1167,0,0,0,0
38270,38200,SEVILLA,ES,37.36666667,-6,37,22,N,6,0,W,0,0,439594,1454,1234,770,1126,1460,1171,1758,1279,1675,1524,0,0,0,0
38280,38200,ROTA,ES,36.61666667,-6.333333333,36,37,N,6,20,W,0,0,516037,1335,954,1580,1422,1348,1508,889,1458,593,1509,0,0,0,0
38290,38200,CADIZ,ES,36.53333333,-6.3,36,32,N,6,18,W,0,0,235790,1377,780,925,1474,1011,866,1527,887,958,1940,0,0,0,0
16470,16000,BENICIA,US,38.05,-122.15,38,3,N,122,9,W,0,0,0,0,0,0,0,0,0,0,0,0,0,0,0,0,0
16480,16000,MARTINEZ,US,38.03333333,-122.1333333,38,2,N,122,8,W,0,0,0,0,0,0,0,0,0,0,0,0,0,0,0,0,0
16510,16000,PITTSBURG,US,38.03333333,-121.8833333,38,2,N,121,53,W,0,0,0,0,0,0,0,0,0,0,0,0,0,0,0,0,0
16515,16000,ANTIOCH,US,38.01666667,-121.8,38,1,N,121,48,W,0,0,0,0,0,0,0,0,0,0,0,0,0,0,0,0,0
16520,16000,STOCKTON,US,37.95,-121.3,37,57,N,121,18,W,0,0,0,0,0,0,0,0,0,0,0,0,0,0,0,0,0
16540,16000,RIO VISTA,US,38.15,-121.7,38,9,N,121,42,W,0,0,0,0,0,0,0,0,0,0,0,0,0,0,0,0,0
16550,16000,ISLETON,US,38.16666667,-121.6,38,10,N,121,36,W,0,0,0,0,0,0,0,0,0,0,0,0,0,0,0,0,0
16560,16000,WALNUT GROVE,US,38.23333333,-121.5166667,38,14,N,121,31,W,0,0,0,0,0,0,0,0,0,0,0,0,0,0,0,0,0
16570,16000,COURTLAND,US,38.33333333,-121.5666667,38,20,N,121,34,W,0,0,0,0,0,0,0,0,0,0,0,0,0,0,0,0,0
16590,16000,SACRAMENTO,US,38.58333333,-121.5,38,35,N,121,30,W,0,0,0,0,0,0,0,0,0,0,0,0,0,0,0,0,0
16630,16000,BODEGA BAY,US,38.33333333,-123.05,38,20,N,123,3,W,0,0,0,0,0,0,0,0,0,0,0,0,0,0,0,0,0
16650,16000,FORT BRAGG,US,39.45,-123.8166667,39,27,N,123,49,W,0,0,0,0,0,0,0,0,0,0,0,0,0,0,0,0,0
16660,16000,FIELDS LANDING,US,40.71666667,-124.2166667,40,43,N,124,13,W,0,0,0,0,0,0,0,0,0,0,0,0,0,0,0,0,0
16670,16000,EUREKA,US,40.8,-124.1833333,40,48,N,124,11,W,0,0,0,0,0,0,0,0,0,0,0,0,0,0,0,0,0
16680,16000,SAMOA,US,40.81666667,-124.1833333,40,49,N,124,11,W,0,0,0,0,0,0,0,0,0,0,0,0,0,0,0,0,0
16700,16000,CRESCENT CITY,US,41.75,-124.2,41,45,N,124,12,W,0,0,0,0,0,0,0,0,0,0,0,0,0,0,0,0,0
16710,16000,PORT ORFORD,US,42.73333333,-124.5,42,44,N,124,30,W,0,0,0,0,0,0,0,0,0,0,0,0,0,0,0,0,0
16720,16000,BANDON,US,43.11666667,-124.4166667,43,7,N,124,25,W,0,0,0,0,0,0,0,0,0,0,0,0,0,0,0,0,0
16730,16000,PROSPER,US,43.15,-124.3666667,43,9,N,124,22,W,0,0,0,0,0,0,0,0,0,0,0,0,0,0,0,0,0
16740,16000,EMPIRE,US,43.4,-124.2833333,43,24,N,124,17,W,0,0,0,0,0,0,0,0,0,0,0,0,0,0,0,0,0
16750,16000,NORTH BEND,US,43.4,-124.2166667,43,24,N,124,13,W,0,0,0,0,0,0,0,0,0,0,0,0,0,0,0,0,0
16770,16000,COOS BAY,US,43.36666667,-124.2166667,43,22,N,124,13,W,0,0,0,0,0,0,0,0,0,0,0,0,0,0,0,0,0
16790,16000,WINCHESTER BAY,US,43.68333333,-124.1833333,43,41,N,124,11,W,0,0,0,0,0,0,0,0,0,0,0,0,0,0,0,0,0
16795,16000,GARDINER,US,43.71666667,-124.1,43,43,N,124,6,W,0,0,0,0,0,0,0,0,0,0,0,0,0,0,0,0,0
16800,16000,REEDSPORT,US,43.7,-124.1,43,42,N,124,6,W,0,0,0,0,0,0,0,0,0,0,0,0,0,0,0,0,0
16803,16000,FLORENCE,US,43.96666667,-124.1166667,43,58,N,124,7,W,0,0,0,0,0,0,0,0,0,0,0,0,0,0,0,0,0
16805,16000,GLENADA,US,43.96666667,-124.1166667,43,58,N,124,7,W,0,0,0,0,0,0,0,0,0,0,0,0,0,0,0,0,0
16808,16000,CUSHMAN,US,43.98333333,-124.0666667,43,59,N,124,4,W,0,0,0,0,0,0,0,0,0,0,0,0,0,0,0,0,0
16810,16000,WALDPORT,US,44.43333333,-124.0666667,44,26,N,124,4,W,0,0,0,0,0,0,0,0,0,0,0,0,0,0,0,0,0
16820,16000,NEWPORT,US,44.63333333,-124.05,44,38,N,124,3,W,0,0,0,0,0,0,0,0,0,0,0,0,0,0,0,0,0
16830,16000,TOLEDO,US,44.61666667,-123.9333333,44,37,N,123,56,W,0,0,0,0,0,0,0,0,0,0,0,0,0,0,0,0,0
16835,16000,DEPOE BAY,US,44.8,-124.0666667,44,48,N,124,4,W,0,0,0,0,0,0,0,0,0,0,0,0,0,0,0,0,0
16838,16000,ILWACO,US,46.3,-124.05,46,18,N,124,3,W,0,0,0,0,0,0,0,0,0,0,0,0,0,0,0,0,0
16290,16000,PRINCETOWN,US,37.5,-122.4833333,37,30,N,122,29,W,0,0,0,0,0,0,0,0,0,0,0,0,0,0,0,0,0
15790,15700,PUERTO VALLARTA,MX,20.61666667,-105.2666667,20,37,N,105,16,W,0,0,0,0,0,0,0,0,0,0,0,0,0,0,0,0,0
15810,15700,MAZATLAN,MX,23.2,-106.4166667,23,12,N,106,25,W,0,0,0,0,0,0,0,0,0,0,0,0,0,0,0,0,0
15830,15700,TOPOLOBAMPO,MX,25.6,-109.0666667,25,36,N,109,4,W,0,0,0,0,0,0,0,0,0,0,0,0,0,0,0,0,0
15850,15700,GUAYMAS,MX,27.91666667,-110.9166667,27,55,N,110,55,W,0,0,0,0,0,0,0,0,0,0,0,0,0,0,0,0,0
15870,15700,SANTA ROSALIA,MX,27.33333333,-112.2833333,27,20,N,112,17,W,0,0,0,0,0,0,0,0,0,0,0,0,0,0,0,0,0
6970,6585,MONHEGAN,US,43.76666667,-69.31666667,43,46,N,69,19,W,0,0,0,0,0,0,0,0,0,0,0,0,0,0,0,0,0
6980,6585,PORT CLYDE,US,43.91666667,-69.25,43,55,N,69,15,W,0,0,0,0,0,0,0,0,0,0,0,0,0,0,0,0,0
6990,6585,THOMASTON,US,44.06666667,-69.18333333,44,4,N,69,11,W,0,0,0,0,0,0,0,0,0,0,0,0,0,0,0,0,0
7000,6585,FRIENDSHIP,US,43.96666667,-69.33333333,43,58,N,69,20,W,0,0,0,0,0,0,0,0,0,0,0,0,0,0,0,0,0
7010,6585,NEW HARBOR,US,43.86666667,-69.48333333,43,52,N,69,29,W,0,0,0,0,0,0,0,0,0,0,0,0,0,0,0,0,0
7020,6585,PEMAQUID BEACH,US,43.86666667,-69.53333333,43,52,N,69,32,W,0,0,0,0,0,0,0,0,0,0,0,0,0,0,0,0,0
7030,6585,SOUTH BRISTOL,US,43.86666667,-69.55,43,52,N,69,33,W,0,0,0,0,0,0,0,0,0,0,0,0,0,0,0,0,0
7040,6585,BOOTHBAY HARBOR,US,43.86666667,-69.58333333,43,52,N,69,35,W,0,0,0,0,0,0,0,0,0,0,0,0,0,0,0,0,0
13780,13310,MAR DEL PLATA,AR,-38.03333333,-57.53333333,38,2,S,57,32,W,0,0,0,0,0,0,0,0,0,0,0,0,0,0,0,0,0
13020,12700,ITAJAI,BR,-26.91666667,-48.63333333,26,55,S,48,38,W,0,0,0,0,0,0,0,0,0,0,0,0,0,0,0,0,0
13050,12700,LAGUNA,BR,-28.5,-48.78333333,28,30,S,48,47,W,0,0,0,0,0,0,0,0,0,0,0,0,0,0,0,0,0
13055,12700,TRAMANDAI,BR,-29.98333333,-50.13333333,29,59,S,50,8,W,0,0,0,0,0,0,0,0,0,0,0,0,0,0,0,0,0
13060,12700,RIO GRANDE,BR,-32.05,-52.08333333,32,3,S,52,5,W,0,0,0,0,0,0,0,0,0,0,0,0,0,0,0,0,0
13070,12700,PELOTAS,BR,-31.78333333,-52.33333333,31,47,S,52,20,W,0,0,0,0,0,0,0,0,0,0,0,0,0,0,0,0,0
13080,12700,PORTO ALEGRE,BR,-30.03333333,-51.23333333,30,2,S,51,14,W,0,0,0,0,0,0,0,0,0,0,0,0,0,0,0,0,0
13100,13090,LA PALOMA,UY,-34.65,-54.15,34,39,S,54,9,W,0,0,0,0,0,0,0,0,0,0,0,0,0,0,0,0,0
13130,13090,PUERTO SAUCE,UY,-34.43333333,-57.45,34,26,S,57,27,W,0,0,0,0,0,0,0,0,0,0,0,0,0,0,0,0,0
13160,13090,FRAY BENTOS,UY,-33.11666667,-58.31666667,33,7,S,58,19,W,0,0,0,0,0,0,0,0,0,0,0,0,0,0,0,0,0
13170,13090,PAYSANDU,UY,-32.31666667,-58.06666667,32,19,S,58,4,W,0,0,0,0,0,0,0,0,0,0,0,0,0,0,0,0,0
13570,13310,PARANA,AR,-31.71666667,-60.53333333,31,43,S,60,32,W,0,0,0,0,0,0,0,0,0,0,0,0,0,0,0,0,0
13580,13310,DIAMANTE,AR,-32.06666667,-60.65,32,4,S,60,39,W,0,0,0,0,0,0,0,0,0,0,0,0,0,0,0,0,0
13600,13310,PUERTO SAN MARTIN,AR,-32.71666667,-60.73333333,32,43,S,60,44,W,0,0,0,0,0,0,0,0,0,0,0,0,0,0,0,0,0
13640,13310,VILLA CONSTITUCION,AR,-33.23333333,-60.33333333,33,14,S,60,20,W,0,0,0,0,0,0,0,0,0,0,0,0,0,0,0,0,0
13650,13310,SAN NICOLAS,AR,-33.33333333,-60.23333333,33,20,S,60,14,W,0,0,0,0,0,0,0,0,0,0,0,0,0,0,0,0,0
13660,13310,RAMALLO,AR,-33.48333333,-60.01666667,33,29,S,60,1,W,0,0,0,0,0,0,0,0,0,0,0,0,0,0,0,0,0
13700,13310,ZARATE,AR,-34.08333333,-59.03333333,34,5,S,59,2,W,0,0,0,0,0,0,0,0,0,0,0,0,0,0,0,0,0
13710,13310,CAMPANA,AR,-34.15,-58.96666667,34,9,S,58,58,W,0,0,0,0,0,0,0,0,0,0,0,0,0,0,0,0,0
13720,13310,CONCORDIA,AR,-31.4,-58.03333333,31,24,S,58,2,W,0,0,0,0,0,0,0,0,0,0,0,0,0,0,0,0,0
4120,3640,MANITOWANING,CA,45.75,-81.8,45,45,N,81,48,W,0,0,0,0,0,0,0,0,0,0,0,0,0,0,0,0,0
4130,3640,SHEGUIANDAH,CA,45.9,-81.91666667,45,54,N,81,55,W,0,0,0,0,0,0,0,0,0,0,0,0,0,0,0,0,0
4140,3640,LITTLE CURRENT,CA,45.98333333,-81.93333333,45,59,N,81,56,W,0,0,0,0,0,0,0,0,0,0,0,0,0,0,0,0,0
4150,3640,HONORA,CA,45.86666667,-82.16666667,45,52,N,82,10,W,0,0,0,0,0,0,0,0,0,0,0,0,0,0,0,0,0
4160,3640,KAGAWONG,CA,45.91666667,-82.25,45,55,N,82,15,W,0,0,0,0,0,0,0,0,0,0,0,0,0,0,0,0,0
4170,3640,GORE BAY,CA,45.91666667,-82.46666667,45,55,N,82,28,W,0,0,0,0,0,0,0,0,0,0,0,0,0,0,0,0,0
4180,3640,MELDRUM BAY,CA,45.93333333,-83.11666667,45,56,N,83,7,W,0,0,0,0,0,0,0,0,0,0,0,0,0,0,0,0,0
4200,3640,BLIND RIVER,CA,46.18333333,-82.95,46,11,N,82,57,W,0,0,0,0,0,0,0,0,0,0,0,0,0,0,0,0,0
4210,3640,COCKBURN,CA,45.95,-83.31666667,45,57,N,83,19,W,0,0,0,0,0,0,0,0,0,0,0,0,0,0,0,0,0
4220,3640,THESSALON,CA,46.25,-83.56666667,46,15,N,83,34,W,0,0,0,0,0,0,0,0,0,0,0,0,0,0,0,0,0
45990,45960,PORT BOUET,CI,5.233333333,-3.966666667,5,14,N,3,58,W,0,0,0,0,0,0,0,0,0,0,0,0,0,0,0,0,0
46000,45960,ABIDJAN,CI,5.25,-4.016666667,5,15,N,4,1,W,0,0,0,0,0,0,0,0,0,0,0,0,0,0,0,0,0
46040,46010,TAKORADI,GH,4.883333333,-1.733333333,4,53,N,1,44,W,0,0,0,0,0,0,0,0,0,0,0,0,0,0,0,0,0
46045,46010,SEKONDI,GH,4.95,-1.7,4,57,N,1,42,W,0,0,0,0,0,0,0,0,0,0,0,0,0,0,0,0,0
46063,46010,SALTPOND,GH,5.2,-1.05,5,12,N,1,3,W,0,0,0,0,0,0,0,0,0,0,0,0,0,0,0,0,0
46070,46010,TEMA,GH,5.616666667,0.01666666667,5,37,N,0,1,E,0,0,0,0,0,0,0,0,0,0,0,0,0,0,0,0,0
46090,46080,LOME,TG,6.133333333,1.283333333,6,8,N,1,17,E,0,0,0,0,0,0,0,0,0,0,0,0,0,0,0,0,0
46095,46080,KPEME,TG,6.2,1.516666667,6,12,N,1,31,E,0,0,0,0,0,0,0,0,0,0,0,0,0,0,0,0,0
46110,46100,COTONOU,BJ,6.35,2.433333333,6,21,N,2,26,E,0,0,0,0,0,0,0,0,0,0,0,0,0,0,0,0,0
46130,46120,LAGOS,NG,6.4,3.4,6,24,N,3,24,E,0,0,0,0,0,0,0,0,0,0,0,0,0,0,0,0,0
46135,46120,ESCRAVOS OIL TERMINAL,NG,5.5,5,5,30,N,5,0,E,0,0,0,0,0,0,0,0,0,0,0,0,0,0,0,0,0
46140,46120,KOKO,NG,6,5.466666667,6,0,N,5,28,E,0,0,0,0,0,0,0,0,0,0,0,0,0,0,0,0,0
46160,46120,FORCADOS,NG,5.366666667,5.433333333,5,22,N,5,26,E,0,0,0,0,0,0,0,0,0,0,0,0,0,0,0,0,0
46165,46120,BURUTU,NG,5.35,5.5,5,21,N,5,30,E,0,0,0,0,0,0,0,0,0,0,0,0,0,0,0,0,0
46190,46120,BRASS OIL TERMINAL,NG,4.066666667,6.283333333,4,4,N,6,17,E,0,0,0,0,0,0,0,0,0,0,0,0,0,0,0,0,0
45821,45817,RUFISQUE,SN,14.7,-17.28333333,14,42,N,17,17,W,0,0,0,0,0,0,0,0,0,0,0,0,0,0,0,0,0
45822,45817,KARABANE,SN,12.56666667,-16.66666667,12,34,N,16,40,W,0,0,0,0,0,0,0,0,0,0,0,0,0,0,0,0,0
45420,45360,LA GOULETTE,TN,36.8,10.3,36,48,N,10,18,E,0,0,0,0,0,0,0,0,0,0,0,0,0,0,0,0,0
45430,45360,TUNIS,TN,36.8,10.25,36,48,N,10,15,E,0,0,0,0,0,0,0,0,0,0,0,0,0,0,0,0,0
45435,45360,TAZERKA OIL TERMINAL,TN,36.6,11.68333333,36,36,N,11,41,E,0,0,0,0,0,0,0,0,0,0,0,0,0,0,0,0,0
45440,45360,BANZART,TN,37.28333333,9.883333333,37,17,N,9,53,E,0,0,0,0,0,0,0,0,0,0,0,0,0,0,0,0,0
59860,59850,FUZHOU,CN,26.08333333,119.3,26,5,N,119,18,E,0,0,0,0,0,0,0,0,0,0,0,0,0,0,0,0,0
58770,57960,ORMOC,PH,11,124.6,11,0,N,124,36,E,0,0,0,0,0,0,0,0,0,0,0,0,0,0,0,0,0
58800,57960,PALOMPON,PH,11.05,124.3833333,11,3,N,124,23,E,0,0,0,0,0,0,0,0,0,0,0,0,0,0,0,0,0
58870,57960,TAGBILARAN,PH,9.65,123.85,9,39,N,123,51,E,0,0,0,0,0,0,0,0,0,0,0,0,0,0,0,0,0
58890,57960,TUBIGAN,PH,9.95,123.9666667,9,57,N,123,58,E,0,0,0,0,0,0,0,0,0,0,0,0,0,0,0,0,0
58960,57960,CEBU,PH,10.3,123.9,10,18,N,123,54,E,0,0,0,0,0,0,0,0,0,0,0,0,0,0,0,0,0
59015,57960,TOLEDO,PH,10.36666667,123.6333333,10,22,N,123,38,E,0,0,0,0,0,0,0,0,0,0,0,0,0,0,0,0,0
59070,57960,SAN CARLOS,PH,10.48333333,123.4166667,10,29,N,123,25,E,0,0,0,0,0,0,0,0,0,0,0,0,0,0,0,0,0
59080,57960,BAIS,PH,9.6,123.1166667,9,36,N,123,7,E,0,0,0,0,0,0,0,0,0,0,0,0,0,0,0,0,0
59090,57960,DUMAGUETE,PH,9.316666667,123.3,9,19,N,123,18,E,0,0,0,0,0,0,0,0,0,0,0,0,0,0,0,0,0
59100,57960,LAZI,PH,9.133333333,123.6333333,9,8,N,123,38,E,0,0,0,0,0,0,0,0,0,0,0,0,0,0,0,0,0
59120,57960,PULUPANDAN,PH,10.51666667,122.8,10,31,N,122,48,E,0,0,0,0,0,0,0,0,0,0,0,0,0,0,0,0,0
38310,38200,ALGECIRAS,ES,36.13333333,-5.433333333,36,8,N,5,26,W,0,0,558494,659,716,1374,1634,682,1664,1128,1429,1087,580,0,0,0,0
38330,38320,EUROPA POINT,GI,36.13333333,-5.35,36,8,N,5,21,W,0,0,0,0,0,0,0,0,0,0,0,0,0,0,0,0,0
38370,38340,MALAGA,ES,36.71666667,-4.416666667,36,43,N,4,25,W,0,0,152426,1148,1277,890,1446,1083,1475,1057,1139,1528,1804,0,0,0,0
38375,38340,MOTRIL,ES,36.75,-3.516666667,36,45,N,3,31,W,0,0,327038,1279,1881,1701,1846,1456,871,1850,708,1878,1519,0,0,0,0
38380,38340,ADRA,ES,36.73333333,-3.033333333,36,44,N,3,2,W,0,0,65242,1181,1716,1148,1993,751,1150,1259,905,1499,1716,0,0,0,0
38390,38340,ALMERIA,ES,36.83333333,-2.466666667,36,50,N,2,28,W,0,0,747412,921,1958,1845,625,1946,1829,1541,843,1503,1525,0,0,0,0
38395,38340,PUERTO DE CARBONERAS,ES,37,-1.883333333,37,0,N,1,53,W,0,0,500465,757,1277,1833,809,1214,1383,1889,1462,1952,1069,0,0,0,0
38410,38340,AGUILAS,ES,37.4,-1.566666667,37,24,N,1,34,W,0,0,367479,514,1370,929,592,671,1332,664,1766,1831,1409,0,0,0,0
38420,38340,HORNILLO,ES,37.4,-1.55,37,24,N,1,33,W,0,0,807052,1410,1844,1987,1546,1787,1291,1906,1297,1486,1998,0,0,0,0
38430,38340,CARTAGENA,ES,37.58333333,-0.9833333333,37,35,N,0,59,W,0,0,537816,1530,643,1068,1339,1699,909,768,590,851,553,0,0,0,0
38435,38340,TORREVIEJA,ES,37.96666667,-0.6833333333,37,58,N,0,41,W,0,0,326152,750,1109,1509,593,540,1456,811,1611,1883,1158,0,0,0,0
38440,38340,ALICANTE,ES,38.33333333,-0.4833333333,38,20,N,0,29,W,0,0,501244,1842,1629,1889,1419,1051,607,1829,1135,1762,1896,0,0,0,0
38460,38340,PUERTO DE GANDIA,ES,39,-0.15,39,0,N,0,9,W,0,0,655287,500,502,1875,1018,769,1472,1860,768,1784,1876,0,0,0,0
38480,38340,VALENCIA,ES,39.45,-0.3166666667,39,27,N,0,19,W,0,0,756101,1777,1225,1356,1033,1802,1744,870,1434,790,1613,0,0,0,0
38490,38340,SAGUNTO,ES,39.65,-0.2166666667,39,39,N,0,13,W,0,0,107561,970,1751,1276,745,1107,1844,1442,1698,968,1605,0,0,0,0
38495,38340,BURRIANA,ES,39.88333333,-0.05,39,53,N,0,3,W,0,0,575416,1755,1995,771,846,1149,1901,1481,628,1012,996,0,0,0,0
38500,38340,EL GRAO,ES,39.96666667,0.01666666667,39,58,N,0,1,E,0,0,715524,1399,722,551,1683,606,1655,1698,1669,775,1069,0,0,0,0
38540,38340,TARRAGONA,ES,41.1,1.233333333,41,6,N,1,14,E,0,0,272922,1941,878,1701,1928,1352,975,1708,535,1844,540,0,0,0,0
38550,38340,BARCELONA,ES,41.35,2.166666667,41,21,N,2,10,E,0,0,751769,1196,1058,1686,1700,1321,1525,1457,1619,1119,1616,0,0,0,0
38570,38340,SAN FELIU DE GUIXOLS,ES,41.78333333,3.033333333,41,47,N,3,2,E,0,0,696718,1218,1765,1986,1419,696,1003,1612,1304,891,1637,0,0,0,0
38580,38340,PALAMOS,ES,41.83333333,3.116666667,41,50,N,3,7,E,0,0,477425,1658,1247,1902,1686,1920,1547,1349,1694,1376,1878,0,0,0,0
38130,38120,FUNCHAL,PT,32.63333333,-16.91666667,32,38,N,16,55,W,0,0,0,0,0,0,0,0,0,0,0,0,0,0,0,0,0
37290,37270,PUERTO DE PASAJES,ES,43.33333333,-1.933333333,43,20,N,1,56,W,0,0,814680,1759,515,606,905,744,541,1309,736,1124,1038,0,0,0,0
37350,37270,BERMEO,ES,43.41666667,-2.716666667,43,25,N,2,43,W,0,0,507230,1482,1227,1780,1267,962,765,683,1693,1740,806,0,0,0,0
37400,37270,PUERTO DE BILBAO,ES,43.35,-3.05,43,21,N,3,3,W,0,0,230015,1783,1057,1374,1417,1121,970,587,1835,508,1293,0,0,0,0
37470,37270,SANTANDER,ES,43.46666667,-3.783333333,43,28,N,3,47,W,0,0,309600,1753,834,657,657,764,944,1320,1992,1013,1826,0,0,0,0
37560,37270,GIJON,ES,43.55,-5.666666667,43,33,N,5,40,W,0,0,625738,942,1055,1974,912,980,1604,1959,627,570,1683,0,0,0,0
12740,12700,PORTO DE SUAPE,BR,-8.4,-34.96666667,8,24,S,34,58,W,0,0,0,0,0,0,0,0,0,0,0,0,0,0,0,0,0
51020,50920,TEGAL,ID,-6.85,109.1333333,6,51,S,109,8,E,0,0,0,0,0,0,0,0,0,0,0,0,0,0,0,0,0
51030,50920,PEKALONGAN,ID,-6.85,109.7,6,51,S,109,42,E,0,0,0,0,0,0,0,0,0,0,0,0,0,0,0,0,0
51040,50920,SEMARANG,ID,-6.95,110.4166667,6,57,S,110,25,E,0,0,0,0,0,0,0,0,0,0,0,0,0,0,0,0,0
51070,50920,REMBANG,ID,-6.7,111.35,6,42,S,111,21,E,0,0,0,0,0,0,0,0,0,0,0,0,0,0,0,0,0
51100,50920,TUBAN,ID,-6.733333333,112.15,6,44,S,112,9,E,0,0,0,0,0,0,0,0,0,0,0,0,0,0,0,0,0
51130,50920,SURABAYA,ID,-7.2,112.7333333,7,12,S,112,44,E,0,0,0,0,0,0,0,0,0,0,0,0,0,0,0,0,0
51200,50920,PANARUKAN,ID,-7.7,113.9333333,7,42,S,113,56,E,0,0,0,0,0,0,0,0,0,0,0,0,0,0,0,0,0
7070,6585,ROBINHOOD,US,43.85,-69.73333333,43,51,N,69,44,W,0,0,0,0,0,0,0,0,0,0,0,0,0,0,0,0,0
7080,6585,BATH,US,43.91666667,-69.81666667,43,55,N,69,49,W,0,0,0,0,0,0,0,0,0,0,0,0,0,0,0,0,0
7100,6585,GARDINER,US,44.23333333,-69.76666667,44,14,N,69,46,W,0,0,0,0,0,0,0,0,0,0,0,0,0,0,0,0,0
7120,6585,AUGUSTA,US,44.31666667,-69.76666667,44,19,N,69,46,W,0,0,0,0,0,0,0,0,0,0,0,0,0,0,0,0,0
7130,6585,CUNDY HARBOR,US,43.78333333,-69.9,43,47,N,69,54,W,0,0,0,0,0,0,0,0,0,0,0,0,0,0,0,0,0
7140,6585,SOUTH HARPSWELL,US,43.73333333,-70.01666667,43,44,N,70,1,W,0,0,0,0,0,0,0,0,0,0,0,0,0,0,0,0,0
7150,6585,PORTLAND,US,43.66666667,-70.25,43,40,N,70,15,W,0,0,0,0,0,0,0,0,0,0,0,0,0,0,0,0,0
7160,6585,SACO,US,43.5,-70.45,43,30,N,70,27,W,0,0,0,0,0,0,0,0,0,0,0,0,0,0,0,0,0
7170,6585,KENNEBUNKPORT,US,43.36666667,-70.46666667,43,22,N,70,28,W,0,0,0,0,0,0,0,0,0,0,0,0,0,0,0,0,0
7180,6585,PORTSMOUTH,US,43.08333333,-70.75,43,5,N,70,45,W,0,0,0,0,0,0,0,0,0,0,0,0,0,0,0,0,0
6670,6585,COREA,US,44.4,-67.96666667,44,24,N,67,58,W,0,0,0,0,0,0,0,0,0,0,0,0,0,0,0,0,0
6170,6070,GOLDSBORO,CA,45.18333333,-61.65,45,11,N,61,39,W,0,0,0,0,0,0,0,0,0,0,0,0,0,0,0,0,0
6190,6070,STORMONT,CA,45.21666667,-61.71666667,45,13,N,61,43,W,0,0,0,0,0,0,0,0,0,0,0,0,0,0,0,0,0
6220,6070,SONORA,CA,45.06666667,-61.91666667,45,4,N,61,55,W,0,0,0,0,0,0,0,0,0,0,0,0,0,0,0,0,0
6330,6070,MUSQUODOBOIT HARBOUR,CA,44.78333333,-63.15,44,47,N,63,9,W,0,0,0,0,0,0,0,0,0,0,0,0,0,0,0,0,0
6340,6070,HALIFAX,CA,44.65,-63.58333333,44,39,N,63,35,W,0,0,0,0,0,0,0,0,0,0,0,0,0,0,0,0,0
6470,6070,DIGBY,CA,44.61666667,-65.76666667,44,37,N,65,46,W,0,0,0,0,0,0,0,0,0,0,0,0,0,0,0,0,0
6500,6070,WINDSOR,CA,45,-64.15,45,0,N,64,9,W,0,0,0,0,0,0,0,0,0,0,0,0,0,0,0,0,0
6550,6070,ST JOHN,CA,45.26666667,-66.05,45,16,N,66,3,W,0,0,0,0,0,0,0,0,0,0,0,0,0,0,0,0,0
6575,6070,PORT BAYSIDE NB,CA,45.15,-67.13333333,45,9,N,67,8,W,0,0,0,0,0,0,0,0,0,0,0,0,0,0,0,0,0
6600,6585,EASTPORT,US,44.9,-66.98333333,44,54,N,66,59,W,0,0,0,0,0,0,0,0,0,0,0,0,0,0,0,0,0
6610,6585,LUBEC,US,44.86666667,-66.98333333,44,52,N,66,59,W,0,0,0,0,0,0,0,0,0,0,0,0,0,0,0,0,0
6620,6585,MACHIASPORT,US,44.7,-67.4,44,42,N,67,24,W,0,0,0,0,0,0,0,0,0,0,0,0,0,0,0,0,0
6630,6585,MACHIAS,US,44.71666667,-67.46666667,44,43,N,67,28,W,0,0,0,0,0,0,0,0,0,0,0,0,0,0,0,0,0
6640,6585,JONESPORT,US,44.53333333,-67.61666667,44,32,N,67,37,W,0,0,0,0,0,0,0,0,0,0,0,0,0,0,0,0,0
6650,6585,WYMAN,US,44.51666667,-67.86666667,44,31,N,67,52,W,0,0,0,0,0,0,0,0,0,0,0,0,0,0,0,0,0
6660,6585,MILBRIDGE,US,44.53333333,-67.88333333,44,32,N,67,53,W,0,0,0,0,0,0,0,0,0,0,0,0,0,0,0,0,0
5440,5230,PORT WING,US,46.78333333,-91.38333333,46,47,N,91,23,W,0,0,0,0,0,0,0,0,0,0,0,0,0,0,0,0,0
29870,29820,KERTEMINDE,DK,55.45,10.66666667,55,27,N,10,40,E,0,0,159378,744,1591,1072,1614,986,596,659,1598,1630,1584,0,0,0,0
45730,45700,CEUTA,ES,35.9,-5.316666667,35,54,N,5,19,W,0,0,488672,1166,1937,1255,824,1530,1842,963,1057,629,1354,0,0,0,0
28187,27380,INKOO,FI,60.01666667,23.91666667,60,1,N,23,55,E,0,0,613538,1920,860,1406,761,899,1025,1864,525,1235,577,0,0,0,0
27850,27380,TOLKKINEN,FI,60.03333333,25.58333333,60,2,N,25,35,E,0,0,234882,1942,1469,1692,1414,1992,1986,1486,536,973,1524,0,0,0,0
27537,27380,RAHJA,FI,64.2,23.73333333,64,12,N,23,44,E,0,0,898919,1940,979,2000,525,1304,1739,770,1528,547,763,0,0,0,0
45720,45700,PORT D AL HOCEIMA,MA,35.25,-3.916666667,35,15,N,3,55,W,0,0,0,0,0,0,0,0,0,0,0,0,0,0,0,0,0
48130,48100,RABIGH,SA,22.73333333,38.98333333,22,44,N,38,59,E,0,0,0,0,0,0,0,0,0,0,0,0,0,0,0,0,0
4230,3640,BRUCE MINES,CA,46.28333333,-83.78333333,46,17,N,83,47,W,0,0,0,0,0,0,0,0,0,0,0,0,0,0,0,0,0
4240,3640,HILTON,CA,46.25,-83.88333333,46,15,N,83,53,W,0,0,0,0,0,0,0,0,0,0,0,0,0,0,0,0,0
4250,3640,DESBARATS,CA,46.33333333,-83.91666667,46,20,N,83,55,W,0,0,0,0,0,0,0,0,0,0,0,0,0,0,0,0,0
4270,3640,RICHARDS LANDING,CA,46.3,-84.03333333,46,18,N,84,2,W,0,0,0,0,0,0,0,0,0,0,0,0,0,0,0,0,0
4290,3640,SAULT STE MARIE,CA,46.51666667,-84.35,46,31,N,84,21,W,0,0,0,0,0,0,0,0,0,0,0,0,0,0,0,0,0
4320,4300,ALGONAC,US,42.61666667,-82.51666667,42,37,N,82,31,W,0,0,0,0,0,0,0,0,0,0,0,0,0,0,0,0,0
4330,4300,MARINE CITY,US,42.71666667,-82.5,42,43,N,82,30,W,0,0,0,0,0,0,0,0,0,0,0,0,0,0,0,0,0
4340,4300,ST CLAIR,US,42.81666667,-82.48333333,42,49,N,82,29,W,0,0,0,0,0,0,0,0,0,0,0,0,0,0,0,0,0
4350,4300,PORT HURON,US,43,-82.43333333,43,0,N,82,26,W,0,0,0,0,0,0,0,0,0,0,0,0,0,0,0,0,0
4370,4300,HARBOR BEACH,US,43.85,-82.65,43,51,N,82,39,W,0,0,0,0,0,0,0,0,0,0,0,0,0,0,0,0,0
3670,3640,COURTRIGHT,CA,42.81666667,-82.46666667,42,49,N,82,28,W,0,0,0,0,0,0,0,0,0,0,0,0,0,0,0,0,0
3190,3120,SODUS BAY,US,43.26666667,-76.98333333,43,16,N,76,59,W,0,0,0,0,0,0,0,0,0,0,0,0,0,0,0,0,0
3200,3120,ROCHESTER,US,43.26666667,-77.6,43,16,N,77,36,W,0,0,0,0,0,0,0,0,0,0,0,0,0,0,0,0,0
3220,3120,YOUNGSTOWN,US,43.25,-79.05,43,15,N,79,3,W,0,0,0,0,0,0,0,0,0,0,0,0,0,0,0,0,0
3250,3240,PORT COLBORNE,CA,42.88333333,-79.25,42,53,N,79,15,W,0,0,0,0,0,0,0,0,0,0,0,0,0,0,0,0,0
3260,3240,PORT MAITLAND,CA,42.85,-79.58333333,42,51,N,79,35,W,0,0,0,0,0,0,0,0,0,0,0,0,0,0,0,0,0
3270,3240,PORT DOVER,CA,42.78333333,-80.2,42,47,N,80,12,W,0,0,0,0,0,0,0,0,0,0,0,0,0,0,0,0,0
3310,3240,PORT STANLEY,CA,42.66666667,-81.2,42,40,N,81,12,W,0,0,0,0,0,0,0,0,0,0,0,0,0,0,0,0,0
3320,3240,RONDEAU,CA,42.26666667,-81.9,42,16,N,81,54,W,0,0,0,0,0,0,0,0,0,0,0,0,0,0,0,0,0
3330,3240,PELEE I NORTH WHARF,CA,41.81666667,-82.66666667,41,49,N,82,40,W,0,0,0,0,0,0,0,0,0,0,0,0,0,0,0,0,0
3340,3240,PELEE I WEST DOCK,CA,41.76666667,-82.68333333,41,46,N,82,41,W,0,0,0,0,0,0,0,0,0,0,0,0,0,0,0,0,0
3350,3240,LEAMINGTON,CA,42.03333333,-82.6,42,2,N,82,36,W,0,0,0,0,0,0,0,0,0,0,0,0,0,0,0,0,0
3360,3240,KINGSVILLE,CA,42.01666667,-82.73333333,42,1,N,82,44,W,0,0,0,0,0,0,0,0,0,0,0,0,0,0,0,0,0
3380,3240,AMHERSTBURG,CA,42.1,-83.1,42,6,N,83,6,W,0,0,0,0,0,0,0,0,0,0,0,0,0,0,0,0,0
3390,3240,WINDSOR,CA,42.31666667,-83.03333333,42,19,N,83,2,W,0,0,0,0,0,0,0,0,0,0,0,0,0,0,0,0,0
3420,3400,TONAWANDA,US,43.03333333,-78.88333333,43,2,N,78,53,W,0,0,0,0,0,0,0,0,0,0,0,0,0,0,0,0,0
3430,3400,BUFFALO,US,42.88333333,-78.88333333,42,53,N,78,53,W,0,0,0,0,0,0,0,0,0,0,0,0,0,0,0,0,0
3440,3400,DUNKIRK,US,42.48333333,-79.33333333,42,29,N,79,20,W,0,0,0,0,0,0,0,0,0,0,0,0,0,0,0,0,0
3450,3400,ERIE,US,42.15,-80.1,42,9,N,80,6,W,0,0,0,0,0,0,0,0,0,0,0,0,0,0,0,0,0
3460,3400,CONNEAUT,US,41.96666667,-80.55,41,58,N,80,33,W,0,0,0,0,0,0,0,0,0,0,0,0,0,0,0,0,0
3470,3400,ASHTABULA,US,41.9,-80.8,41,54,N,80,48,W,0,0,0,0,0,0,0,0,0,0,0,0,0,0,0,0,0
3480,3400,FAIRPORT,US,41.76666667,-81.3,41,46,N,81,18,W,0,0,0,0,0,0,0,0,0,0,0,0,0,0,0,0,0
3490,3400,CLEVELAND,US,41.5,-81.71666667,41,30,N,81,43,W,0,0,0,0,0,0,0,0,0,0,0,0,0,0,0,0,0
3500,3400,LORAIN,US,41.46666667,-82.18333333,41,28,N,82,11,W,0,0,0,0,0,0,0,0,0,0,0,0,0,0,0,0,0
3510,3400,VERMILION,US,41.43333333,-82.36666667,41,26,N,82,22,W,0,0,0,0,0,0,0,0,0,0,0,0,0,0,0,0,0
3520,3400,HURON,US,41.4,-82.55,41,24,N,82,33,W,0,0,0,0,0,0,0,0,0,0,0,0,0,0,0,0,0
3530,3400,SANDUSKY,US,41.45,-82.71666667,41,27,N,82,43,W,0,0,0,0,0,0,0,0,0,0,0,0,0,0,0,0,0
50180,50020,BLINYU,ID,-1.633333333,105.7833333,1,38,S,105,47,E,0,0,0,0,0,0,0,0,0,0,0,0,0,0,0,0,0
48297,48285,RAS LAFFAN,QA,25.91666667,51.58333333,25,55,N,51,35,E,0,0,0,0,0,0,0,0,0,0,0,0,0,0,0,0,0
50250,50020,TANJUNGPANDAN,ID,-2.75,107.6333333,2,45,S,107,38,E,0,0,0,0,0,0,0,0,0,0,0,0,0,0,0,0,0
50330,50020,PALEMBANG,ID,-2.983333333,104.7666667,2,59,S,104,46,E,0,0,0,0,0,0,0,0,0,0,0,0,0,0,0,0,0
46650,46635,LUDERITZ BAY,NA,-26.65,15.15,26,39,S,15,9,E,0,0,0,0,0,0,0,0,0,0,0,0,0,0,0,0,0
59150,57960,PORT CAPIZ,PH,11.6,122.7166667,11,36,N,122,43,E,0,0,0,0,0,0,0,0,0,0,0,0,0,0,0,0,0
59180,57960,JORDAN,PH,10.66666667,122.5833333,10,40,N,122,35,E,0,0,0,0,0,0,0,0,0,0,0,0,0,0,0,0,0
59190,57960,ILOILO,PH,10.7,122.5833333,10,42,N,122,35,E,0,0,0,0,0,0,0,0,0,0,0,0,0,0,0,0,0
59270,57960,PUERTO PRINCESA,PH,9.733333333,118.7333333,9,44,N,118,44,E,0,0,0,0,0,0,0,0,0,0,0,0,0,0,0,0,0
58740,57960,MAASIN,PH,10.13333333,124.8333333,10,8,N,124,50,E,0,0,0,0,0,0,0,0,0,0,0,0,0,0,0,0,0
58750,57960,BAYBAY,PH,10.68333333,124.8,10,41,N,124,48,E,0,0,0,0,0,0,0,0,0,0,0,0,0,0,0,0,0
58205,57960,SORSOGON,PH,12.96666667,124,12,58,N,124,0,E,0,0,0,0,0,0,0,0,0,0,0,0,0,0,0,0,0
58315,57960,SANTA CRUZ (MARINDUQUE ISL),PH,13.5,122.0666667,13,30,N,122,4,E,0,0,0,0,0,0,0,0,0,0,0,0,0,0,0,0,0
58320,57960,BATANGAS CITY,PH,13.75,121.05,13,45,N,121,3,E,0,0,0,0,0,0,0,0,0,0,0,0,0,0,0,0,0
58350,57960,NASUGBU,PH,14.08333333,120.6166667,14,5,N,120,37,E,0,0,0,0,0,0,0,0,0,0,0,0,0,0,0,0,0
58370,57960,MANILA,PH,14.58333333,120.9666667,14,35,N,120,58,E,0,0,0,0,0,0,0,0,0,0,0,0,0,0,0,0,0
58390,57960,MARIVELES,PH,14.43333333,120.4833333,14,26,N,120,29,E,0,0,0,0,0,0,0,0,0,0,0,0,0,0,0,0,0
58410,57960,MASINLOC,PH,15.55,119.95,15,33,N,119,57,E,0,0,0,0,0,0,0,0,0,0,0,0,0,0,0,0,0
58460,57960,SAN FERNANDO HARBOR,PH,16.61666667,120.3166667,16,37,N,120,19,E,0,0,0,0,0,0,0,0,0,0,0,0,0,0,0,0,0
58540,57960,CALAPAN,PH,13.41666667,121.1833333,13,25,N,121,11,E,0,0,0,0,0,0,0,0,0,0,0,0,0,0,0,0,0
58590,57960,PORT ROMBLON,PH,12.58333333,122.2666667,12,35,N,122,16,E,0,0,0,0,0,0,0,0,0,0,0,0,0,0,0,0,0
58620,57960,MASBATE,PH,12.36666667,123.6166667,12,22,N,123,37,E,0,0,0,0,0,0,0,0,0,0,0,0,0,0,0,0,0
58630,57960,LAOANG,PH,12.56666667,125.0166667,12,34,N,125,1,E,0,0,0,0,0,0,0,0,0,0,0,0,0,0,0,0,0
58640,57960,PORT BORONGAN,PH,11.6,125.4333333,11,36,N,125,26,E,0,0,0,0,0,0,0,0,0,0,0,0,0,0,0,0,0
58655,57960,GUIUAN,PH,11.03333333,125.7166667,11,2,N,125,43,E,0,0,0,0,0,0,0,0,0,0,0,0,0,0,0,0,0
58670,57960,CATBALOGAN,PH,11.76666667,124.8833333,11,46,N,124,53,E,0,0,0,0,0,0,0,0,0,0,0,0,0,0,0,0,0
58690,57960,TACLOBAN,PH,11.25,125,11,15,N,125,0,E,0,0,0,0,0,0,0,0,0,0,0,0,0,0,0,0,0
57745,57740,FANG-CHENG,CN,21.75,108.35,21,45,N,108,21,E,0,0,0,0,0,0,0,0,0,0,0,0,0,0,0,0,0
57750,57740,BEIHAI,CN,21.48333333,109.0666667,21,29,N,109,4,E,0,0,0,0,0,0,0,0,0,0,0,0,0,0,0,0,0
57760,57740,HAIKOU,CN,20.05,110.2833333,20,3,N,110,17,E,0,0,0,0,0,0,0,0,0,0,0,0,0,0,0,0,0
57768,57740,BASUO,CN,19.1,108.6166667,19,6,N,108,37,E,0,0,0,0,0,0,0,0,0,0,0,0,0,0,0,0,0
57770,57740,ZHANJIANG,CN,21.2,110.4,21,12,N,110,24,E,0,0,0,0,0,0,0,0,0,0,0,0,0,0,0,0,0
57775,57740,LON SHUI TERMINAL,CN,20.83333333,115.6833333,20,50,N,115,41,E,0,0,0,0,0,0,0,0,0,0,0,0,0,0,0,0,0
57810,57805,MACAU,MO,22.18333333,113.5666667,22,11,N,113,34,E,0,0,0,0,0,0,0,0,0,0,0,0,0,0,0,0,0
57825,57815,HUANGPUXINGANG,CN,23.05,113.5,23,3,N,113,30,E,0,0,0,0,0,0,0,0,0,0,0,0,0,0,0,0,0
57830,57815,GUANGZHOU,CN,23.11666667,113.2333333,23,7,N,113,14,E,0,0,0,0,0,0,0,0,0,0,0,0,0,0,0,0,0
45490,45470,ANNABA,DZ,36.91666667,7.766666667,36,55,N,7,46,E,0,0,0,0,0,0,0,0,0,0,0,0,0,0,0,0,0
45510,45470,SKIKDA,DZ,36.88333333,6.916666667,36,53,N,6,55,E,0,0,0,0,0,0,0,0,0,0,0,0,0,0,0,0,0
45520,45470,COLLO,DZ,37,6.583333333,37,0,N,6,35,E,0,0,0,0,0,0,0,0,0,0,0,0,0,0,0,0,0
45550,45470,BEJAIA,DZ,36.75,5.083333333,36,45,N,5,5,E,0,0,0,0,0,0,0,0,0,0,0,0,0,0,0,0,0
45560,45470,DELLYS,DZ,36.91666667,3.916666667,36,55,N,3,55,E,0,0,0,0,0,0,0,0,0,0,0,0,0,0,0,0,0
45570,45470,ALGER,DZ,36.76666667,3.066666667,36,46,N,3,4,E,0,0,0,0,0,0,0,0,0,0,0,0,0,0,0,0,0
45610,45470,TENES,DZ,36.53333333,1.316666667,36,32,N,1,19,E,0,0,0,0,0,0,0,0,0,0,0,0,0,0,0,0,0
45620,45470,MOSTAGANEM,DZ,35.93333333,0.08333333333,35,56,N,0,5,E,0,0,0,0,0,0,0,0,0,0,0,0,0,0,0,0,0
45630,45470,ARZEW,DZ,35.85,-0.3,35,51,N,0,18,W,0,0,0,0,0,0,0,0,0,0,0,0,0,0,0,0,0
45635,45470,ARZEW EL DJEDID,DZ,35.81666667,-0.25,35,49,N,0,15,W,0,0,0,0,0,0,0,0,0,0,0,0,0,0,0,0,0
45640,45470,ORAN,DZ,35.7,-0.6333333333,35,42,N,0,38,W,0,0,0,0,0,0,0,0,0,0,0,0,0,0,0,0,0
45650,45470,MERS EL KEBIR,DZ,35.73333333,-0.7,35,44,N,0,42,W,0,0,0,0,0,0,0,0,0,0,0,0,0,0,0,0,0
51220,50920,CILACAP,ID,-7.733333333,109,7,44,S,109,0,E,0,0,0,0,0,0,0,0,0,0,0,0,0,0,0,0,0
51260,51250,BENOA,ID,-8.75,115.2166667,8,45,S,115,13,E,0,0,0,0,0,0,0,0,0,0,0,0,0,0,0,0,0
51290,51250,LABUHANHAJI,ID,-8.7,116.5666667,8,42,S,116,34,E,0,0,0,0,0,0,0,0,0,0,0,0,0,0,0,0,0
51320,51250,MAUMERE,ID,-8.616666667,122.2166667,8,37,S,122,13,E,0,0,0,0,0,0,0,0,0,0,0,0,0,0,0,0,0
51330,51250,LARANTUKA,ID,-8.35,122.9833333,8,21,S,122,59,E,0,0,0,0,0,0,0,0,0,0,0,0,0,0,0,0,0
51340,51250,ENDE,ID,-8.833333333,121.65,8,50,S,121,39,E,0,0,0,0,0,0,0,0,0,0,0,0,0,0,0,0,0
51500,51480,TAREMPAH,ID,3.216666667,106.2166667,3,13,N,106,13,E,0,0,0,0,0,0,0,0,0,0,0,0,0,0,0,0,0
50790,50515,BENGKALIS,ID,1.466666667,102.1,1,28,N,102,6,E,0,0,0,0,0,0,0,0,0,0,0,0,0,0,0,0,0
50010,49990,PULAU BUKOM,SG,1.233333333,103.7666667,1,14,N,103,46,E,0,0,0,0,0,0,0,0,0,0,0,0,0,0,0,0,0
50015,49990,PULAU SEBAROK,SG,1.2,103.8,1,12,N,103,48,E,0,0,0,0,0,0,0,0,0,0,0,0,0,0,0,0,0
50030,50020,TANJUNGUBAN,ID,1.066666667,104.2166667,1,4,N,104,13,E,0,0,0,0,0,0,0,0,0,0,0,0,0,0,0,0,0
50040,50020,TANJUNGPINANG,ID,0.9166666667,104.45,0,55,N,104,27,E,0,0,0,0,0,0,0,0,0,0,0,0,0,0,0,0,0
50045,50020,KIJANG,ID,0.85,104.6,0,51,N,104,36,E,0,0,0,0,0,0,0,0,0,0,0,0,0,0,0,0,0
50060,50020,PULAU SAMBU,ID,1.166666667,103.9,1,10,N,103,54,E,0,0,0,0,0,0,0,0,0,0,0,0,0,0,0,0,0
50100,50020,DABO,ID,-0.5,104.5666667,0,30,S,104,34,E,0,0,0,0,0,0,0,0,0,0,0,0,0,0,0,0,0
50120,50020,TOBOALI,ID,-3.016666667,106.45,3,1,S,106,27,E,0,0,0,0,0,0,0,0,0,0,0,0,0,0,0,0,0
50140,50020,MUNTOK,ID,-2.066666667,105.1666667,2,4,S,105,10,E,0,0,0,0,0,0,0,0,0,0,0,0,0,0,0,0,0
50210,50020,PANGKALPINANG,ID,-2.116666667,106.1333333,2,7,S,106,8,E,0,0,0,0,0,0,0,0,0,0,0,0,0,0,0,0,0
50350,50020,CINTA OIL TERMINAL,ID,-5.5,106.2333333,5,30,S,106,14,E,0,0,0,0,0,0,0,0,0,0,0,0,0,0,0,0,0
50380,50020,PANJANG,ID,-5.466666667,105.3166667,5,28,S,105,19,E,0,0,0,0,0,0,0,0,0,0,0,0,0,0,0,0,0
50450,50020,TELUK BAYUR,ID,-1,100.3666667,1,0,S,100,22,E,0,0,0,0,0,0,0,0,0,0,0,0,0,0,0,0,0
37600,37270,AVILES,ES,43.6,-5.933333333,43,36,N,5,56,W,0,0,412214,1069,1292,1772,547,1300,509,1168,1024,1953,1825,0,0,0,0
37670,37270,RIBADEO,ES,43.53333333,-7.033333333,43,32,N,7,2,W,0,0,240092,1954,902,1978,1954,1553,927,659,1580,898,1051,0,0,0,0
37690,37270,SAN CIPRIAN,ES,43.7,-7.433333333,43,42,N,7,26,W,0,0,452845,1712,1697,604,1537,1651,1111,1506,1657,781,1582,0,0,0,0
37740,37270,FERROL,ES,43.48333333,-8.233333333,43,29,N,8,14,W,0,0,572848,1391,1005,1613,1395,562,1199,688,792,1876,1912,0,0,0,0
37770,37270,LA CORUNA,ES,43.36666667,-8.4,43,22,N,8,24,W,0,0,210181,1326,716,1592,1541,577,1414,1510,1355,1286,1931,0,0,0,0
37830,37270,VILLAGARCIA DE AROSA,ES,42.6,-8.766666667,42,36,N,8,46,W,0,0,308937,1607,1047,553,1572,986,1591,1447,739,1266,884,0,0,0,0
37860,37270,MARIN,ES,42.4,-8.7,42,24,N,8,42,W,0,0,283816,734,1814,932,1433,1960,1058,703,1847,1920,1042,0,0,0,0
37900,37270,VIGO,ES,42.23333333,-8.716666667,42,14,N,8,43,W,0,0,394106,1853,974,1675,694,1091,614,797,1991,527,1340,0,0,0,0
23950,23860,BROFJORDEN,SE,58.38333333,11.41666667,58,23,N,11,25,E,0,0,0,0,0,0,0,0,0,0,0,0,0,0,0,0,0
24000,23860,STENUNGSUND,SE,58.06666667,11.83333333,58,4,N,11,50,E,0,0,0,0,0,0,0,0,0,0,0,0,0,0,0,0,0
28484,28420,MUUGA-PORT OF TALLIN,EE,59.5,24.95,59,30,N,24,57,E,0,0,642329,1574,1846,730,632,1918,814,559,1207,1829,596,0,0,0,0
23817,20620,FAGERSTRAND,NO,59.73333333,10.6,59,44,N,10,36,E,0,0,78682,1003,1548,662,1045,989,1350,1507,948,868,1513,0,0,0,0
48590,48580,GWADAR,PK,25.13333333,62.3,25,8,N,62,18,E,0,0,0,0,0,0,0,0,0,0,0,0,0,0,0,0,0
49030,48610,NEW MANGALORE,IN,12.91666667,74.81666667,12,55,N,74,49,E,0,0,0,0,0,0,0,0,0,0,0,0,0,0,0,0,0
57472,57431,PETCHBURI TERMINAL,TH,13.16666667,100.15,13,10,N,100,9,E,0,0,0,0,0,0,0,0,0,0,0,0,0,0,0,0,0
57443,57431,RAYONG TPI TERMINAL,TH,12.63333333,101.3,12,38,N,101,18,E,0,0,0,0,0,0,0,0,0,0,0,0,0,0,0,0,0
57461,57431,SIAM SEAPORT,TH,13.13333333,100.8833333,13,8,N,100,53,E,0,0,0,0,0,0,0,0,0,0,0,0,0,0,0,0,0
49890,49820,LUMUT,MY,4.233333333,100.6333333,4,14,N,100,38,E,0,0,0,0,0,0,0,0,0,0,0,0,0,0,0,0,0
51586,51550,TAWA,MY,4.25,117.8833333,4,15,N,117,53,E,0,0,0,0,0,0,0,0,0,0,0,0,0,0,0,0,0
49910,49820,TELUK ANSON,MY,4.016666667,101.0166667,4,1,N,101,1,E,0,0,0,0,0,0,0,0,0,0,0,0,0,0,0,0,0
49454,49310,KAMARAJAR PORT,IN,13.26666667,80.31666667,13,16,N,80,19,E,0,0,0,0,0,0,0,0,0,0,0,0,0,0,0,0,0
51635,51610,LUMUT,BN,4.716666667,114.45,4,43,N,114,27,E,0,0,0,0,0,0,0,0,0,0,0,0,0,0,0,0,0
48613,48610,SIKKA,IN,22.43333333,69.83333333,22,26,N,69,50,E,0,0,0,0,0,0,0,0,0,0,0,0,0,0,0,0,0
48617,48610,MUNDRA,IN,22.73333333,69.7,22,44,N,69,42,E,0,0,0,0,0,0,0,0,0,0,0,0,0,0,0,0,0
48674,48610,DAHEJ,IN,21.7,72.53333333,21,42,N,72,32,E,0,0,0,0,0,0,0,0,0,0,0,0,0,0,0,0,0
50517,50515,JABUNG BATANGHARI MARINE TERMINAL,ID,-0.9166666667,104.0666667,0,55,S,104,4,E,0,0,0,0,0,0,0,0,0,0,0,0,0,0,0,0,0
50740,50515,KUALA KAPUS,ID,3,114.3666667,3,0,N,114,22,E,0,0,0,0,0,0,0,0,0,0,0,0,0,0,0,0,0
50070,50020,LALANG MARINE TERMINAL,ID,1.183333333,102.2166667,1,11,N,102,13,E,0,0,0,0,0,0,0,0,0,0,0,0,0,0,0,0,0
52297,51970,PAREPARE,ID,-4,119.6166667,4,0,S,119,37,E,0,0,0,0,0,0,0,0,0,0,0,0,0,0,0,0,0
51501,51480,BELANAK FIELD TERMINAL,ID,4.15,106.25,4,9,N,106,15,E,0,0,0,0,0,0,0,0,0,0,0,0,0,0,0,0,0
51484,51480,BELIDA MARINE TERMINAL,ID,4.133333333,105.1333333,4,8,N,105,8,E,0,0,0,0,0,0,0,0,0,0,0,0,0,0,0,0,0
51254,51250,TANJUNG BENETE,ID,-8.9,116.75,8,54,S,116,45,E,0,0,0,0,0,0,0,0,0,0,0,0,0,0,0,0,0
51205,50920,CELUKAN BAWANG,ID,-8.183333333,114.8333333,8,11,S,114,50,E,0,0,0,0,0,0,0,0,0,0,0,0,0,0,0,0,0
48057,47950,ZAFARANA TERMINAL,EG,29.16666667,32.68333333,29,10,N,32,41,E,0,0,0,0,0,0,0,0,0,0,0,0,0,0,0,0,0
47989,47950,ZEIT BAY LPG TERMINAL,EG,27.8,33.56666667,27,48,N,33,34,E,0,0,0,0,0,0,0,0,0,0,0,0,0,0,0,0,0
31360,31330,WHITSTABLE,GB,51.36666667,1.033333333,51,22,N,1,2,E,0,0,372756,1098,1373,1174,1195,1829,1231,1479,1685,1513,1180,0,0,0,0
31370,31330,SHEERNESS,GB,51.45,0.75,51,27,N,0,45,E,0,0,96923,888,1948,1530,1624,1715,1412,1083,1952,900,1269,0,0,0,0
31376,31330,THAMESPORT,GB,51.43333333,0.7,51,26,N,0,42,E,0,0,504383,945,1856,1768,1010,1469,944,1288,660,791,1183,0,0,0,0
31390,31330,CHATHAM DOCKS,GB,51.4,0.55,51,24,N,0,33,E,0,0,392957,1468,1725,1255,1610,1521,1562,1932,1428,1062,1538,0,0,0,0
31420,31330,GRAVESEND,GB,51.45,0.3666666667,51,27,N,0,22,E,0,0,382097,1397,621,1947,1504,1650,775,1070,1144,1129,973,0,0,0,0
31470,31330,LONDON,GB,51.5,-0.08333333333,51,30,N,0,5,W,0,0,581454,869,536,731,1177,513,1450,1698,747,628,868,0,0,0,0
31506,31330,COLCHESTER,GB,51.88333333,0.9166666667,51,53,N,0,55,E,0,0,145470,832,1479,1952,920,1981,921,1408,1251,1318,1727,0,0,0,0
31530,31330,HARWICH,GB,51.95,1.283333333,51,57,N,1,17,E,0,0,375638,1124,598,1060,783,1797,840,809,1705,1456,1882,0,0,0,0
47680,47670,SAINT-DENIS,RE,-20.86666667,55.45,20,52,S,55,27,E,0,0,0,0,0,0,0,0,0,0,0,0,0,0,0,0,0
47695,47670,PORT OUEST,RE,-20.93333333,55.28333333,20,56,S,55,17,E,0,0,0,0,0,0,0,0,0,0,0,0,0,0,0,0,0
47720,47710,PORT LOUIS,MU,-20.15,57.5,20,9,S,57,30,E,0,0,0,0,0,0,0,0,0,0,0,0,0,0,0,0,0
47750,47740,PORT MATHURIN,MU,-19.68333333,63.41666667,19,41,S,63,25,E,0,0,0,0,0,0,0,0,0,0,0,0,0,0,0,0,0
5510,5501,GASPE,CA,48.83333333,-64.48333333,48,50,N,64,29,W,0,0,0,0,0,0,0,0,0,0,0,0,0,0,0,0,0
2030,1930,RIMOUSKI,CA,48.45,-68.51666667,48,27,N,68,31,W,0,0,0,0,0,0,0,0,0,0,0,0,0,0,0,0,0
2130,1930,CHICOUTIMI (PORT SAGUENAY),CA,48.43333333,-71.06666667,48,26,N,71,4,W,0,0,0,0,0,0,0,0,0,0,0,0,0,0,0,0,0
2220,1930,SOREL,CA,46.05,-73.11666667,46,3,N,73,7,W,0,0,0,0,0,0,0,0,0,0,0,0,0,0,0,0,0
48540,48410,JASK,IR,25.63333333,57.76666667,25,38,N,57,46,E,0,0,0,0,0,0,0,0,0,0,0,0,0,0,0,0,0
47855,47840,DORALEH,DJ,11.6,43.08333333,11,36,N,43,5,E,0,0,0,0,0,0,0,0,0,0,0,0,0,0,0,0,0
47830,47810,BOOSAASO,SO,11.28333333,49.18333333,11,17,N,49,11,E,0,0,0,0,0,0,0,0,0,0,0,0,0,0,0,0,0
47942,47910,AL KHAIR OIL TERMINAL,SD,19.58333333,37.25,19,35,N,37,15,E,0,0,0,0,0,0,0,0,0,0,0,0,0,0,0,0,0
47944,47910,BESHAYER OIL TERMINAL,SD,19.4,37.31666667,19,24,N,37,19,E,0,0,0,0,0,0,0,0,0,0,0,0,0,0,0,0,0
47946,47910,SAWAKIN HARBOR,SD,19.13333333,37.35,19,8,N,37,21,E,0,0,0,0,0,0,0,0,0,0,0,0,0,0,0,0,0
48273,48260,UMM AL QAYWAYN,AE,25.58333333,55.58333333,25,35,N,55,35,E,0,0,0,0,0,0,0,0,0,0,0,0,0,0,0,0,0
48272,48260,SHARJAH OFFSHORE TERMINAL,AE,25.58333333,55.4,25,35,N,55,24,E,0,0,0,0,0,0,0,0,0,0,0,0,0,0,0,0,0
48271,48260,ASH SHARIQAH,AE,25.41666667,55.36666667,25,25,N,55,22,E,0,0,0,0,0,0,0,0,0,0,0,0,0,0,0,0,0
48270,48260,AJMAN,AE,25.41666667,55.43333333,25,25,N,55,26,E,0,0,0,0,0,0,0,0,0,0,0,0,0,0,0,0,0
48269,48260,AL JAZEERA PORT,AE,25.71666667,55.78333333,25,43,N,55,47,E,0,0,0,0,0,0,0,0,0,0,0,0,0,0,0,0,0
48266,48260,ZIRKUH PETROLEUM PORT,AE,25.01666667,53,25,1,N,53,0,E,0,0,0,0,0,0,0,0,0,0,0,0,0,0,0,0,0
50440,50020,BENGKULU,ID,-3.783333333,102.25,3,47,S,102,15,E,0,0,0,0,0,0,0,0,0,0,0,0,0,0,0,0,0
6545,6070,CANAPORT (ST. JOHN),CA,45.2,-65.98333333,45,12,N,65,59,W,0,0,0,0,0,0,0,0,0,0,0,0,0,0,0,0,0
6410,6070,LIVERPOOL (BROOKLYN),CA,44.03333333,-64.65,44,2,N,64,39,W,0,0,0,0,0,0,0,0,0,0,0,0,0,0,0,0,0
45530,45470,JIJEL,DZ,36.83333333,5.783333333,36,50,N,5,47,E,0,0,0,0,0,0,0,0,0,0,0,0,0,0,0,0,0
25610,24975,NORRSUNDET,SE,60.93333333,17.16666667,60,56,N,17,10,E,0,0,0,0,0,0,0,0,0,0,0,0,0,0,0,0,0
57439,57431,SONGKHLA HARBOR,TH,7.216666667,100.5833333,7,13,N,100,35,E,0,0,0,0,0,0,0,0,0,0,0,0,0,0,0,0,0
57642,57510,DAI HANG,VN,8.483333333,108.6833333,8,29,N,108,41,E,0,0,0,0,0,0,0,0,0,0,0,0,0,0,0,0,0
25640,24975,VALLVIK,SE,61.18333333,17.16666667,61,11,N,17,10,E,0,0,0,0,0,0,0,0,0,0,0,0,0,0,0,0,0
57655,57510,MUI VUNG TAU,VN,10.31666667,107.0666667,10,19,N,107,4,E,0,0,0,0,0,0,0,0,0,0,0,0,0,0,0,0,0
25720,24975,SODERHAMN,SE,61.3,17.08333333,61,18,N,17,5,E,0,0,0,0,0,0,0,0,0,0,0,0,0,0,0,0,0
57572,57510,PHU MY,VN,10.58333333,107.0333333,10,35,N,107,2,E,0,0,0,0,0,0,0,0,0,0,0,0,0,0,0,0,0
45660,45470,BENI SAF,DZ,35.3,-1.383333333,35,18,N,1,23,W,0,0,0,0,0,0,0,0,0,0,0,0,0,0,0,0,0
45670,45470,GHAZAOUET,DZ,35.1,-1.866666667,35,6,N,1,52,W,0,0,0,0,0,0,0,0,0,0,0,0,0,0,0,0,0
45755,45700,TANGER,MA,35.78333333,-5.816666667,35,47,N,5,49,W,0,0,0,0,0,0,0,0,0,0,0,0,0,0,0,0,0
45762,45700,PORT NADOR,MA,35.28333333,-2.933333333,35,17,N,2,56,W,0,0,0,0,0,0,0,0,0,0,0,0,0,0,0,0,0
45785,45700,KENITRA,MA,34.3,-6.6,34,18,N,6,36,W,0,0,0,0,0,0,0,0,0,0,0,0,0,0,0,0,0
45790,45700,MOHAMMEDIA,MA,33.71666667,-7.4,33,43,N,7,24,W,0,0,0,0,0,0,0,0,0,0,0,0,0,0,0,0,0
45793,45700,CASABLANCA,MA,33.6,-7.616666667,33,36,N,7,37,W,0,0,0,0,0,0,0,0,0,0,0,0,0,0,0,0,0
45797,45700,SAFI,MA,32.3,-9.25,32,18,N,9,15,W,0,0,0,0,0,0,0,0,0,0,0,0,0,0,0,0,0
45800,45700,ESSAOUIRA,MA,31.5,-9.783333333,31,30,N,9,47,W,0,0,0,0,0,0,0,0,0,0,0,0,0,0,0,0,0
45808,45805,AD DAKHLA,EH,23.7,-15.91666667,23,42,N,15,55,W,0,0,0,0,0,0,0,0,0,0,0,0,0,0,0,0,0
45812,45810,NOUADHIBOU,MR,20.91666667,-17.05,20,55,N,17,3,W,0,0,0,0,0,0,0,0,0,0,0,0,0,0,0,0,0
45818,45817,ST LOUIS,SN,16.01666667,-16.51666667,16,1,N,16,31,W,0,0,0,0,0,0,0,0,0,0,0,0,0,0,0,0,0
45820,45817,DAKAR,SN,14.68333333,-17.43333333,14,41,N,17,26,W,0,0,0,0,0,0,0,0,0,0,0,0,0,0,0,0,0
45390,45360,MERSA SFAX,TN,34.73333333,10.76666667,34,44,N,10,46,E,0,0,0,0,0,0,0,0,0,0,0,0,0,0,0,0,0
45400,45360,MAHDIA,TN,35.5,11.06666667,35,30,N,11,4,E,0,0,0,0,0,0,0,0,0,0,0,0,0,0,0,0,0
45410,45360,SOUSSE,TN,35.83333333,10.65,35,50,N,10,39,E,0,0,0,0,0,0,0,0,0,0,0,0,0,0,0,0,0
44860,44360,MERSIN,TR,36.8,34.63333333,36,48,N,34,38,E,0,0,695921,1725,1771,596,1942,1707,694,506,1773,1798,1094,0,0,0,0
44870,44360,BOTAS,TR,36.88333333,35.93333333,36,53,N,35,56,E,0,0,543072,1595,578,1804,1030,1343,1506,1878,1340,735,1173,0,0,0,0
44880,44360,ISKENDERUN,TR,36.6,36.16666667,36,36,N,36,10,E,0,0,858023,563,632,1134,1251,1066,772,1155,883,1140,1847,0,0,0,0
44900,44890,KYRENIA,CY,35.35,33.33333333,35,21,N,33,20,E,0,0,0,0,0,0,0,0,0,0,0,0,0,0,0,0,0
44910,44890,XEROS,CY,35.13333333,32.83333333,35,8,N,32,50,E,0,0,0,0,0,0,0,0,0,0,0,0,0,0,0,0,0
44950,44890,LIMASSOL,CY,34.66666667,33.05,34,40,N,33,3,E,0,0,0,0,0,0,0,0,0,0,0,0,0,0,0,0,0
44960,44890,LARNACA,CY,34.91666667,33.65,34,55,N,33,39,E,0,0,0,0,0,0,0,0,0,0,0,0,0,0,0,0,0
44965,44890,DHEKELIA,CY,34.96666667,33.71666667,34,58,N,33,43,E,0,0,0,0,0,0,0,0,0,0,0,0,0,0,0,0,0
44970,44890,FAMAGUSTA,CY,35.11666667,33.93333333,35,7,N,33,56,E,0,0,0,0,0,0,0,0,0,0,0,0,0,0,0,0,0
45003,45000,TARTUS,SY,34.9,35.86666667,34,54,N,35,52,E,0,0,0,0,0,0,0,0,0,0,0,0,0,0,0,0,0
45005,45000,BANIYAS,SY,35.18333333,35.95,35,11,N,35,57,E,0,0,0,0,0,0,0,0,0,0,0,0,0,0,0,0,0
45010,45000,AL LADHIQIYAH,SY,35.53333333,35.76666667,35,32,N,35,46,E,0,0,0,0,0,0,0,0,0,0,0,0,0,0,0,0,0
57840,57835,HONG KONG,HK,22.26666667,114.2,22,16,N,114,12,E,0,0,0,0,0,0,0,0,0,0,0,0,0,0,0,0,0
57860,57855,SHAN T OU,CN,23.36666667,116.6833333,23,22,N,116,41,E,0,0,0,0,0,0,0,0,0,0,0,0,0,0,0,0,0
57870,57855,XIAMEN,CN,24.45,118.0666667,24,27,N,118,4,E,0,0,0,0,0,0,0,0,0,0,0,0,0,0,0,0,0
57890,57880,CHI-LUNG,TW,25.13333333,121.7666667,25,8,N,121,46,E,0,0,0,0,0,0,0,0,0,0,0,0,0,0,0,0,0
57900,57880,SU-AO,TW,24.6,121.8666667,24,36,N,121,52,E,0,0,0,0,0,0,0,0,0,0,0,0,0,0,0,0,0
57910,57880,HUA-LIEN KANG,TW,23.98333333,121.6,23,59,N,121,36,E,0,0,0,0,0,0,0,0,0,0,0,0,0,0,0,0,0
57920,57880,KAO-HSIUNG,TW,22.61666667,120.25,22,37,N,120,15,E,0,0,0,0,0,0,0,0,0,0,0,0,0,0,0,0,0
57935,57880,TAN-SHUI,TW,25.18333333,121.4,25,11,N,121,24,E,0,0,0,0,0,0,0,0,0,0,0,0,0,0,0,0,0
57950,57940,PENG-HU KANG,TW,23.58333333,119.5333333,23,35,N,119,32,E,0,0,0,0,0,0,0,0,0,0,0,0,0,0,0,0,0
57955,57940,TAI-CHUNG KANG,TW,24.3,120.5,24,18,N,120,30,E,0,0,0,0,0,0,0,0,0,0,0,0,0,0,0,0,0
57970,57960,BASCO,PH,20.45,121.9666667,20,27,N,121,58,E,0,0,0,0,0,0,0,0,0,0,0,0,0,0,0,0,0
37940,37930,VIANA DO CASTELO,PT,41.7,-8.833333333,41,42,N,8,50,W,0,0,0,0,0,0,0,0,0,0,0,0,0,0,0,0,0
37950,37930,PORTO DE LEIXOES,PT,41.18333333,-8.7,41,11,N,8,42,W,0,0,0,0,0,0,0,0,0,0,0,0,0,0,0,0,0
37960,37930,OPORTO,PT,41.15,-8.666666667,41,9,N,8,40,W,0,0,0,0,0,0,0,0,0,0,0,0,0,0,0,0,0
37970,37930,AVEIRO,PT,40.65,-8.65,40,39,N,8,39,W,0,0,0,0,0,0,0,0,0,0,0,0,0,0,0,0,0
37980,37930,FIGUEIRA DA FOZ,PT,40.15,-8.85,40,9,N,8,51,W,0,0,0,0,0,0,0,0,0,0,0,0,0,0,0,0,0
37990,37930,LISBOA,PT,38.7,-9.166666667,38,42,N,9,10,W,0,0,0,0,0,0,0,0,0,0,0,0,0,0,0,0,0
38000,37930,SETUBAL,PT,38.51666667,-8.9,38,31,N,8,54,W,0,0,0,0,0,0,0,0,0,0,0,0,0,0,0,0,0
38005,37930,SINES,PT,37.95,-8.866666667,37,57,N,8,52,W,0,0,0,0,0,0,0,0,0,0,0,0,0,0,0,0,0
38030,37930,FARO,PT,37.03333333,-7.933333333,37,2,N,7,56,W,0,0,0,0,0,0,0,0,0,0,0,0,0,0,0,0,0
38050,37930,VILA REAL DE S ANTONIO,PT,37.18333333,-7.4,37,11,N,7,24,W,0,0,0,0,0,0,0,0,0,0,0,0,0,0,0,0,0
37190,36450,BORDEAUX,FR,44.86666667,-0.5666666667,44,52,N,0,34,W,0,0,66629,1330,756,666,1158,857,1960,721,1400,1196,1391,0,0,0,0
36040,35970,SAINT HELIER HARBOUR,JE,49.18333333,-2.116666667,49,11,N,2,7,W,0,0,0,0,0,0,0,0,0,0,0,0,0,0,0,0,0
36260,36060,PAIMPOL,FR,48.78333333,-3.05,48,47,N,3,3,W,0,0,187071,968,767,1311,1260,1769,1209,1953,1031,1719,1367,0,0,0,0
36460,36450,RADE DE BREST,FR,48.38333333,-4.5,48,23,N,4,30,W,0,0,878825,1008,589,1385,1402,1544,1776,862,1298,972,1781,0,0,0,0
36620,36450,CONCARNEAU,FR,47.86666667,-3.916666667,47,52,N,3,55,W,0,0,603461,1345,1364,672,762,1977,1481,811,1730,616,1778,0,0,0,0
36680,36450,LORIENT,FR,47.75,-3.35,47,45,N,3,21,W,0,0,178107,712,744,538,690,1030,1989,1847,1635,1045,1063,0,0,0,0
36850,36450,ST NAZAIRE,FR,47.28333333,-2.2,47,17,N,2,12,W,0,0,652830,1589,1963,1855,562,1032,1224,761,1900,1724,932,0,0,0,0
36860,36450,DONGES,FR,47.3,-2.066666667,47,18,N,2,4,W,0,0,505984,876,1203,600,944,1215,1000,668,1462,695,1248,0,0,0,0
36900,36450,NANTES,FR,47.2,-1.566666667,47,12,N,1,34,W,0,0,267308,1072,1026,1371,1286,799,1938,1505,693,1232,1377,0,0,0,0
36960,36450,LES SABLES D' OLONNE,FR,46.5,-1.8,46,30,N,1,48,W,0,0,860023,1957,520,1090,661,1599,949,1964,1507,1725,970,0,0,0,0
37000,36450,LA PALLICE,FR,46.16666667,-1.216666667,46,10,N,1,13,W,0,0,777748,1986,1290,1861,1232,799,1818,1701,1612,649,1795,0,0,0,0
37010,36450,LA ROCHELLE,FR,46.15,-1.15,46,9,N,1,9,W,0,0,315361,508,1732,1586,1662,765,1830,704,1035,1537,1233,0,0,0,0
37040,36450,ROCHEFORT,FR,45.93333333,-0.95,45,56,N,0,57,W,0,0,475493,618,677,1179,791,1248,663,1341,873,816,1244,0,0,0,0
37050,36450,TONNAY CHARENTE,FR,45.93333333,-0.9,45,56,N,0,54,W,0,0,92745,1949,1006,1468,820,1101,1479,1753,520,1159,1167,0,0,0,0
37120,36450,LE VERDON,FR,45.55,-1.05,45,33,N,1,3,W,0,0,318041,1966,1013,1991,1552,1601,1944,557,824,909,2000,0,0,0,0
37150,36450,PAUILLAC,FR,45.2,-0.75,45,12,N,0,45,W,0,0,815133,1677,572,924,1984,1106,1208,1705,1758,1904,1667,0,0,0,0
37160,36450,BLAYE,FR,45.13333333,-0.6666666667,45,8,N,0,40,W,0,0,849558,908,865,1255,1752,1856,1640,1164,883,1658,1934,0,0,0,0
8895,8650,CONVENT,US,30.01666667,-90.83333333,30,1,N,90,50,W,0,0,0,0,0,0,0,0,0,0,0,0,0,0,0,0,0
9235,8650,DEER PARK,US,29.75,-95.33333333,29,45,N,95,20,W,0,0,0,0,0,0,0,0,0,0,0,0,0,0,0,0,0
48055,47950,AIN SUKHNA TERMINAL,EG,29.58333333,32.36666667,29,35,N,32,22,E,0,0,0,0,0,0,0,0,0,0,0,0,0,0,0,0,0
48121,48100,KING FAHD PORT,SA,23.95,38.21666667,23,57,N,38,13,E,0,0,0,0,0,0,0,0,0,0,0,0,0,0,0,0,0
48155,48143,RAS ISA MARINE TERMINAL,YE,15.13333333,42.6,15,8,N,42,36,E,0,0,0,0,0,0,0,0,0,0,0,0,0,0,0,0,0
57777,57740,SHEKOU,CN,22.46666667,113.8666667,22,28,N,113,52,E,0,0,0,0,0,0,0,0,0,0,0,0,0,0,0,0,0
50340,50020,ARDJUNA OIL FIELD,ID,-5.883333333,107.7166667,5,53,S,107,43,E,0,0,0,0,0,0,0,0,0,0,0,0,0,0,0,0,0
60230,59850,BAYUQUAN,CN,40.3,122.0833333,40,18,N,122,5,E,0,0,0,0,0,0,0,0,0,0,0,0,0,0,0,0,0
31550,31330,IPSWICH,GB,52.05,1.166666667,52,3,N,1,10,E,0,0,324251,1970,1242,1283,1464,1325,1965,514,680,1013,1510,0,0,0,0
31570,31330,LOWESTOFT,GB,52.48333333,1.75,52,29,N,1,45,E,0,0,70523,1747,1255,1082,801,676,1555,933,718,1135,1608,0,0,0,0
31580,31330,GREAT YARMOUTH,GB,52.61666667,1.733333333,52,37,N,1,44,E,0,0,899263,863,1778,1542,1320,920,1279,774,1614,1466,1070,0,0,0,0
31610,31330,KING'S LYNN,GB,52.75,0.4,52,45,N,0,24,E,0,0,82262,1058,1039,1160,1764,1124,1022,1217,1738,815,983,0,0,0,0
31630,31330,BOSTON,GB,52.96666667,-0.01666666667,52,58,N,0,1,W,0,0,788995,1813,877,1323,1235,849,1991,1243,1104,801,1234,0,0,0,0
31640,31330,GRIMSBY,GB,53.58333333,-0.06666666667,53,35,N,0,4,W,0,0,890510,1302,1465,1211,713,1978,637,1750,1951,1815,676,0,0,0,0
31650,31330,IMMINGHAM,GB,53.63333333,-0.2,53,38,N,0,12,W,0,0,198316,1232,1931,1666,701,1316,1716,1533,925,1796,1597,0,0,0,0
31660,31330,KINGSTON UPON HULL,GB,53.75,-0.2833333333,53,45,N,0,17,W,0,0,126617,1551,918,776,1391,747,1461,1649,1854,825,1317,0,0,0,0
31670,31330,GOOLE,GB,53.7,-0.8333333333,53,42,N,0,50,W,0,0,735711,1498,1885,557,884,1886,1168,1960,1032,1317,1988,0,0,0,0
31680,31330,BRIDLINGTON,GB,54.08333333,-0.1833333333,54,5,N,0,11,W,0,0,757316,1230,1088,1387,966,1052,1084,582,1543,946,1342,0,0,0,0
31690,31330,SCARBOROUGH,GB,54.28333333,-0.4,54,17,N,0,24,W,0,0,289439,930,1300,1941,1584,1950,1292,1923,1217,659,1430,0,0,0,0
31700,31330,WHITBY,GB,54.48333333,-0.6166666667,54,29,N,0,37,W,0,0,310791,1327,1737,656,1206,1285,641,811,1107,1105,792,0,0,0,0
31140,30980,ROTTERDAM,NL,51.9,4.483333333,51,54,N,4,29,E,0,0,651790,1655,1381,736,1018,665,1988,1710,512,735,1188,0,0,0,0
30630,30020,RINGKOBING,DK,56.08333333,8.25,56,5,N,8,15,E,0,0,53048,1672,606,1384,1468,895,1111,569,684,1725,615,0,0,0,0
30640,30020,ESBJERG,DK,55.46666667,8.45,55,28,N,8,27,E,0,0,856586,1789,758,1107,1875,1789,634,1627,1349,689,856,0,0,0,0
30680,30650,HUSUM,DE,54.48333333,9.05,54,29,N,9,3,E,0,0,418521,1855,1324,1344,1468,672,1103,903,638,1207,946,0,0,0,0
30710,30650,BRUNSBUTTEL ELBAHAFEN,DE,53.88333333,9.166666667,53,53,N,9,10,E,0,0,502576,671,1267,955,1490,1711,1309,1325,1757,944,1088,0,0,0,0
30720,30650,BRUNSBUTTEL CANAL TERMINALS,DE,53.9,9.15,53,54,N,9,9,E,0,0,820204,1179,1222,968,1438,1015,1333,1766,1052,1356,1343,0,0,0,0
30730,30650,RENDSBURG,DE,54.3,9.683333333,54,18,N,9,41,E,0,0,801700,1940,529,1326,921,1714,1761,1846,639,1207,1095,0,0,0,0
30760,30650,GLUCKSTADT,DE,53.78333333,9.416666667,53,47,N,9,25,E,0,0,109665,1620,1040,774,1849,1183,734,1485,1479,1146,1184,0,0,0,0
30780,30650,HAMBURG,DE,53.55,9.933333333,53,33,N,9,56,E,0,0,754980,1830,1137,686,1123,575,867,1798,788,1458,1383,0,0,0,0
30800,30650,CUXHAVEN,DE,53.86666667,8.716666667,53,52,N,8,43,E,0,0,596292,702,1798,1521,1844,621,830,1377,1115,1061,1792,0,0,0,0
30810,30650,BREMERHAVEN,DE,53.53333333,8.583333333,53,32,N,8,35,E,0,0,512485,556,1535,1773,917,1933,1309,1292,564,931,1859,0,0,0,0
30840,30650,NORDENHAM,DE,53.48333333,8.483333333,53,29,N,8,29,E,0,0,248370,1105,1596,1141,1567,1939,1747,1474,1297,1365,1415,0,0,0,0
30850,30650,BRAKE,DE,53.33333333,8.483333333,53,20,N,8,29,E,0,0,776101,870,1454,608,805,1960,1883,989,938,1208,885,0,0,0,0
30860,30650,ELSFLETH,DE,53.23333333,8.466666667,53,14,N,8,28,E,0,0,639163,1220,1264,796,1482,533,1968,1396,1990,847,1595,0,0,0,0
30870,30650,OLDENBURG,DE,53.11666667,8.216666667,53,7,N,8,13,E,0,0,792644,1051,1413,513,1571,925,1777,765,1557,571,1137,0,0,0,0
30900,30650,BREMEN,DE,53.13333333,8.766666667,53,8,N,8,46,E,0,0,706933,1704,1307,1189,1226,761,769,1679,904,1421,797,0,0,0,0
30910,30650,WILHELMSHAVEN,DE,53.53333333,8.166666667,53,32,N,8,10,E,0,0,889261,786,930,916,715,511,1837,1387,1592,1523,1471,0,0,0,0
30950,30650,EMDEN,DE,53.33333333,7.183333333,53,20,N,7,11,E,0,0,554992,814,505,1263,1488,1992,850,1720,739,610,1313,0,0,0,0
30960,30650,LEER,DE,53.23333333,7.45,53,14,N,7,27,E,0,0,406013,512,735,1456,820,1154,1579,1020,1494,1949,1783,0,0,0,0
30970,30650,PAPENBURG,DE,53.1,7.383333333,53,6,N,7,23,E,0,0,871922,1092,1332,1622,559,1114,1547,1459,1856,780,1464,0,0,0,0
30990,30980,DELFZIJL,NL,53.33333333,6.933333333,53,20,N,6,56,E,0,0,481748,590,839,1819,1556,725,1403,1701,746,1246,1924,0,0,0,0
31010,30980,HARLINGEN,NL,53.18333333,5.416666667,53,11,N,5,25,E,0,0,572021,1755,1787,680,781,1720,756,1866,1593,1080,1076,0,0,0,0
31020,30980,DEN HELDER,NL,52.96666667,4.783333333,52,58,N,4,47,E,0,0,126917,1009,1933,1258,980,1225,1403,1842,1142,1827,1206,0,0,0,0
15880,15700,ISLA SAN MARCOS,MX,27.18333333,-112.1,27,11,N,112,6,W,0,0,0,0,0,0,0,0,0,0,0,0,0,0,0,0,0
15915,15700,SAN JUAN DE LA COSTA,MX,24.4,-110.7,24,24,N,110,42,W,0,0,0,0,0,0,0,0,0,0,0,0,0,0,0,0,0
15920,15700,LA PAZ,MX,24.16666667,-110.3166667,24,10,N,110,19,W,0,0,0,0,0,0,0,0,0,0,0,0,0,0,0,0,0
15990,15700,ENSENADA,MX,31.86666667,-116.6333333,31,52,N,116,38,W,0,0,0,0,0,0,0,0,0,0,0,0,0,0,0,0,0
15995,15700,ROSARITO,MX,32.36666667,-117.1,32,22,N,117,6,W,0,0,0,0,0,0,0,0,0,0,0,0,0,0,0,0,0
16010,16000,SAN DIEGO,US,32.71666667,-117.1833333,32,43,N,117,11,W,0,0,0,0,0,0,0,0,0,0,0,0,0,0,0,0,0
16030,16000,WILSON COVE,US,33,-118.55,33,0,N,118,33,W,0,0,0,0,0,0,0,0,0,0,0,0,0,0,0,0,0
16040,16000,ISTHMUS COVE,US,33.45,-118.5,33,27,N,118,30,W,0,0,0,0,0,0,0,0,0,0,0,0,0,0,0,0,0
1795,1780,PORT AUX BASQUES,CA,47.56666667,-59.13333333,47,34,N,59,8,W,0,0,0,0,0,0,0,0,0,0,0,0,0,0,0,0,0
1810,1800,STEPHENVILLE,CA,48.53333333,-58.53333333,48,32,N,58,32,W,0,0,0,0,0,0,0,0,0,0,0,0,0,0,0,0,0
1820,1800,ST GEORGE'S,CA,48.45,-58.45,48,27,N,58,27,W,0,0,0,0,0,0,0,0,0,0,0,0,0,0,0,0,0
1830,1800,CORNER BROOK,CA,48.95,-57.95,48,57,N,57,57,W,0,0,0,0,0,0,0,0,0,0,0,0,0,0,0,0,0
1880,1871,BLANC SABLON,CA,51.41666667,-57.13333333,51,25,N,57,8,W,0,0,0,0,0,0,0,0,0,0,0,0,0,0,0,0,0
1890,1871,HAVRE ST PIERRE,CA,50.23333333,-63.6,50,14,N,63,36,W,0,0,0,0,0,0,0,0,0,0,0,0,0,0,0,0,0
1957,1930,POINTE NOIRE,CA,50.16666667,-66.48333333,50,10,N,66,29,W,0,0,0,0,0,0,0,0,0,0,0,0,0,0,0,0,0
1958,1930,PORT CARTIER,CA,50.03333333,-66.78333333,50,2,N,66,47,W,0,0,0,0,0,0,0,0,0,0,0,0,0,0,0,0,0
1990,1930,MATANE,CA,48.85,-67.53333333,48,51,N,67,32,W,0,0,0,0,0,0,0,0,0,0,0,0,0,0,0,0,0
2015,1930,BAIE COMEAU,CA,49.23333333,-68.13333333,49,14,N,68,8,W,0,0,0,0,0,0,0,0,0,0,0,0,0,0,0,0,0
2110,1930,LA BAIE (PORT ALFRED),CA,48.33333333,-70.88333333,48,20,N,70,53,W,0,0,0,0,0,0,0,0,0,0,0,0,0,0,0,0,0
2150,1930,RIVIERE DU LOUP,CA,47.83333333,-69.51666667,47,50,N,69,31,W,0,0,0,0,0,0,0,0,0,0,0,0,0,0,0,0,0
2180,1930,QUEBEC,CA,46.81666667,-71.21666667,46,49,N,71,13,W,0,0,0,0,0,0,0,0,0,0,0,0,0,0,0,0,0
2210,1930,TROIS RIVIERES,CA,46.35,-72.55,46,21,N,72,33,W,0,0,0,0,0,0,0,0,0,0,0,0,0,0,0,0,0
2235,1930,MONTREAL,CA,45.51666667,-73.55,45,31,N,73,33,W,0,0,0,0,0,0,0,0,0,0,0,0,0,0,0,0,0
2300,2270,VAUDREUIL,CA,45.4,-74.03333333,45,24,N,74,2,W,0,0,0,0,0,0,0,0,0,0,0,0,0,0,0,0,0
2310,2270,OKA SUR LE LAC,CA,45.46666667,-74.08333333,45,28,N,74,5,W,0,0,0,0,0,0,0,0,0,0,0,0,0,0,0,0,0
2320,2270,HUDSON,CA,45.46666667,-74.13333333,45,28,N,74,8,W,0,0,0,0,0,0,0,0,0,0,0,0,0,0,0,0,0
2330,2270,ST PLACIDE,CA,45.53333333,-74.2,45,32,N,74,12,W,0,0,0,0,0,0,0,0,0,0,0,0,0,0,0,0,0
2340,2270,ST ANDREWS EAST,CA,45.56666667,-74.33333333,45,34,N,74,20,W,0,0,0,0,0,0,0,0,0,0,0,0,0,0,0,0,0
2350,2270,CARILLON,CA,45.56666667,-74.36666667,45,34,N,74,22,W,0,0,0,0,0,0,0,0,0,0,0,0,0,0,0,0,0
2370,2270,CHUTE A BLONDEAU,CA,45.58333333,-74.46666667,45,35,N,74,28,W,0,0,0,0,0,0,0,0,0,0,0,0,0,0,0,0,0
2380,2270,GRENVILLE,CA,45.63333333,-74.6,45,38,N,74,36,W,0,0,0,0,0,0,0,0,0,0,0,0,0,0,0,0,0
2390,2270,HAWKESBURY,CA,45.61666667,-74.61666667,45,37,N,74,37,W,0,0,0,0,0,0,0,0,0,0,0,0,0,0,0,0,0
2400,2270,FASSETT,CA,45.65,-74.86666667,45,39,N,74,52,W,0,0,0,0,0,0,0,0,0,0,0,0,0,0,0,0,0
2420,2270,MONTEBELLO,CA,45.65,-74.93333333,45,39,N,74,56,W,0,0,0,0,0,0,0,0,0,0,0,0,0,0,0,0,0
2430,2270,PAPINEAUVILLE,CA,45.61666667,-75.01666667,45,37,N,75,1,W,0,0,0,0,0,0,0,0,0,0,0,0,0,0,0,0,0
2460,2270,THURSO,CA,45.6,-75.23333333,45,36,N,75,14,W,0,0,0,0,0,0,0,0,0,0,0,0,0,0,0,0,0
6000,5860,SYDNEY,CA,46.15,-60.2,46,9,N,60,12,W,0,0,0,0,0,0,0,0,0,0,0,0,0,0,0,0,0
6020,5860,LOUISBURG,CA,45.91666667,-59.96666667,45,55,N,59,58,W,0,0,0,0,0,0,0,0,0,0,0,0,0,0,0,0,0
57990,57960,CLAVERIA,PH,18.61666667,121.0833333,18,37,N,121,5,E,0,0,0,0,0,0,0,0,0,0,0,0,0,0,0,0,0
57995,57960,PORT SAN VICENTE,PH,18.51666667,122.1333333,18,31,N,122,8,E,0,0,0,0,0,0,0,0,0,0,0,0,0,0,0,0,0
58000,57960,APARRI,PH,18.36666667,121.6333333,18,22,N,121,38,E,0,0,0,0,0,0,0,0,0,0,0,0,0,0,0,0,0
58070,57960,HONDAGUA,PH,13.95,122.2333333,13,57,N,122,14,E,0,0,0,0,0,0,0,0,0,0,0,0,0,0,0,0,0
58100,57960,JOSE PANGANIBAN,PH,14.28333333,122.6833333,14,17,N,122,41,E,0,0,0,0,0,0,0,0,0,0,0,0,0,0,0,0,0
58130,57960,VIRAC,PH,13.58333333,124.25,13,35,N,124,15,E,0,0,0,0,0,0,0,0,0,0,0,0,0,0,0,0,0
58150,57960,TABACO,PH,13.36666667,123.7333333,13,22,N,123,44,E,0,0,0,0,0,0,0,0,0,0,0,0,0,0,0,0,0
58170,57960,LEGAZPI PORT,PH,13.15,123.75,13,9,N,123,45,E,0,0,0,0,0,0,0,0,0,0,0,0,0,0,0,0,0
57710,57510,CAM PHA,VN,21.03333333,107.3666667,21,2,N,107,22,E,0,0,0,0,0,0,0,0,0,0,0,0,0,0,0,0,0
57100,56940,TULAGHI,SB,-9.1,160.15,9,6,S,160,9,E,0,0,0,0,0,0,0,0,0,0,0,0,0,0,0,0,0
57120,56940,HONIARA,SB,-9.416666667,159.95,9,25,S,159,57,E,0,0,0,0,0,0,0,0,0,0,0,0,0,0,0,0,0
57200,57160,LUGANVILLE,VU,-15.51666667,167.1666667,15,31,S,167,10,E,0,0,0,0,0,0,0,0,0,0,0,0,0,0,0,0,0
57230,57160,PORT VILA,VU,-17.73333333,168.3166667,17,44,S,168,19,E,0,0,0,0,0,0,0,0,0,0,0,0,0,0,0,0,0
57245,57160,FORARI BAY,VU,-17.68333333,168.55,17,41,S,168,33,E,0,0,0,0,0,0,0,0,0,0,0,0,0,0,0,0,0
57275,57260,BAIE DE KOUAOUA,NC,-21.38333333,165.8166667,21,23,S,165,49,E,0,0,0,0,0,0,0,0,0,0,0,0,0,0,0,0,0
57410,57400,KUANTAN NEW PORT,MY,3.966666667,103.4333333,3,58,N,103,26,E,0,0,0,0,0,0,0,0,0,0,0,0,0,0,0,0,0
